[
  {
    "name": "New York",
    "state": "NY",
    "pop": 8405837,
    "lat": 40.7127837,
    "lon": -74.00594129999999,
    "capital": false
  },
  {
    "name": "Los Angeles",
    "state": "CA",
    "pop": 3884307,
    "lat": 34.0522342,
    "lon": -118.24368490000002,
    "capital": false
  },
  {
    "name": "Chicago",
    "state": "IL",
    "pop": 2718782,
    "lat": 41.8781136,
    "lon": -87.62979820000001,
    "capital": false
  },
  {
    "name": "Houston",
    "state": "TX",
    "pop": 2195914,
    "lat": 29.7604267,
    "lon": -95.36980279999999,
    "capital": false
  },
  {
    "name": "Philadelphia",
    "state": "PA",
    "pop": 1553165,
    "lat": 39.9525839,
    "lon": -75.1652215,
    "capital": false
  },
  {
    "name": "Phoenix",
    "state": "AZ",
    "pop": 1513367,
    "lat": 33.4483771,
    "lon": -112.07403729999999,
    "capital": true
  },
  {
    "name": "San Antonio",
    "state": "TX",
    "pop": 1409019,
    "lat": 29.4241219,
    "lon": -98.4936282,
    "capital": false
  },
  {
    "name": "San Diego",
    "state": "CA",
    "pop": 1355896,
    "lat": 32.715738,
    "lon": -117.1610838,
    "capital": false
  },
  {
    "name": "Dallas",
    "state": "TX",
    "pop": 1257676,
    "lat": 32.7766642,
    "lon": -96.7969879,
    "capital": false
  },
  {
    "name": "San Jose",
    "state": "CA",
    "pop": 998537,
    "lat": 37.338208200000004,
    "lon": -121.88632859999998,
    "capital": false
  },
  {
    "name": "Austin",
    "state": "TX",
    "pop": 885400,
    "lat": 30.267153000000004,
    "lon": -97.7430608,
    "capital": true
  },
  {
    "name": "Indianapolis",
    "state": "IN",
    "pop": 843393,
    "lat": 39.768403,
    "lon": -86.158068,
    "capital": true
  },
  {
    "name": "Jacksonville",
    "state": "FL",
    "pop": 842583,
    "lat": 30.3321838,
    "lon": -81.655651,
    "capital": false
  },
  {
    "name": "San Francisco",
    "state": "CA",
    "pop": 837442,
    "lat": 37.7749295,
    "lon": -122.4194155,
    "capital": false
  },
  {
    "name": "Columbus",
    "state": "OH",
    "pop": 822553,
    "lat": 39.9611755,
    "lon": -82.9987942,
    "capital": true
  },
  {
    "name": "Charlotte",
    "state": "NC",
    "pop": 792862,
    "lat": 35.2270869,
    "lon": -80.8431267,
    "capital": false
  },
  {
    "name": "Fort Worth",
    "state": "TX",
    "pop": 792727,
    "lat": 32.7554883,
    "lon": -97.3307658,
    "capital": false
  },
  {
    "name": "Detroit",
    "state": "MI",
    "pop": 688701,
    "lat": 42.331427000000005,
    "lon": -83.0457538,
    "capital": false
  },
  {
    "name": "El Paso",
    "state": "TX",
    "pop": 674433,
    "lat": 31.7775757,
    "lon": -106.44245590000001,
    "capital": false
  },
  {
    "name": "Memphis",
    "state": "TN",
    "pop": 653450,
    "lat": 35.1495343,
    "lon": -90.0489801,
    "capital": false
  },
  {
    "name": "Seattle",
    "state": "WA",
    "pop": 652405,
    "lat": 47.6062095,
    "lon": -122.33207079999998,
    "capital": false
  },
  {
    "name": "Denver",
    "state": "CO",
    "pop": 649495,
    "lat": 39.739235799999996,
    "lon": -104.990251,
    "capital": true
  },
  {
    "name": "Washington",
    "state": "DC",
    "pop": 646449,
    "lat": 38.9071923,
    "lon": -77.03687070000001,
    "capital": true
  },
  {
    "name": "Boston",
    "state": "MA",
    "pop": 645966,
    "lat": 42.360082500000004,
    "lon": -71.0588801,
    "capital": true
  },
  {
    "name": "Nashville",
    "state": "TN",
    "pop": 634464,
    "lat": 36.1626638,
    "lon": -86.78160159999999,
    "capital": true
  },
  {
    "name": "Baltimore",
    "state": "MD",
    "pop": 622104,
    "lat": 39.2903848,
    "lon": -76.6121893,
    "capital": false
  },
  {
    "name": "Oklahoma City",
    "state": "OK",
    "pop": 610613,
    "lat": 35.4675602,
    "lon": -97.5164276,
    "capital": true
  },
  {
    "name": "Louisville",
    "state": "KY",
    "pop": 609893,
    "lat": 38.252664700000004,
    "lon": -85.7584557,
    "capital": false
  },
  {
    "name": "Portland",
    "state": "OR",
    "pop": 609456,
    "lat": 45.523062200000005,
    "lon": -122.67648159999999,
    "capital": false
  },
  {
    "name": "Las Vegas",
    "state": "NV",
    "pop": 603488,
    "lat": 36.169941200000004,
    "lon": -115.13982959999998,
    "capital": false
  },
  {
    "name": "Milwaukee",
    "state": "WI",
    "pop": 599164,
    "lat": 43.0389025,
    "lon": -87.9064736,
    "capital": false
  },
  {
    "name": "Albuquerque",
    "state": "NM",
    "pop": 556495,
    "lat": 35.0853336,
    "lon": -106.6055534,
    "capital": false
  },
  {
    "name": "Tucson",
    "state": "AZ",
    "pop": 526116,
    "lat": 32.2217429,
    "lon": -110.926479,
    "capital": false
  },
  {
    "name": "Fresno",
    "state": "CA",
    "pop": 509924,
    "lat": 36.7468422,
    "lon": -119.7725868,
    "capital": false
  },
  {
    "name": "Sacramento",
    "state": "CA",
    "pop": 479686,
    "lat": 38.5815719,
    "lon": -121.49439960000001,
    "capital": true
  },
  {
    "name": "Long Beach",
    "state": "CA",
    "pop": 469428,
    "lat": 33.770050399999995,
    "lon": -118.1937395,
    "capital": false
  },
  {
    "name": "Kansas City",
    "state": "MO",
    "pop": 467007,
    "lat": 39.0997265,
    "lon": -94.5785667,
    "capital": false
  },
  {
    "name": "Mesa",
    "state": "AZ",
    "pop": 457587,
    "lat": 33.4151843,
    "lon": -111.83147240000001,
    "capital": false
  },
  {
    "name": "Virginia Beach",
    "state": "VA",
    "pop": 448479,
    "lat": 36.8529263,
    "lon": -75.977985,
    "capital": false
  },
  {
    "name": "Atlanta",
    "state": "GA",
    "pop": 447841,
    "lat": 33.7489954,
    "lon": -84.3879824,
    "capital": true
  },
  {
    "name": "Colorado Springs",
    "state": "CO",
    "pop": 439886,
    "lat": 38.8338816,
    "lon": -104.82136340000001,
    "capital": false
  },
  {
    "name": "Omaha",
    "state": "NE",
    "pop": 434353,
    "lat": 41.25236339999999,
    "lon": -95.99798829999999,
    "capital": false
  },
  {
    "name": "Raleigh",
    "state": "NC",
    "pop": 431746,
    "lat": 35.7795897,
    "lon": -78.6381787,
    "capital": true
  },
  {
    "name": "Miami",
    "state": "FL",
    "pop": 417650,
    "lat": 25.7616798,
    "lon": -80.1917902,
    "capital": false
  },
  {
    "name": "Oakland",
    "state": "CA",
    "pop": 406253,
    "lat": 37.8043637,
    "lon": -122.27111370000002,
    "capital": false
  },
  {
    "name": "Minneapolis",
    "state": "MN",
    "pop": 400070,
    "lat": 44.977753,
    "lon": -93.2650108,
    "capital": false
  },
  {
    "name": "Tulsa",
    "state": "OK",
    "pop": 398121,
    "lat": 36.1539816,
    "lon": -95.992775,
    "capital": false
  },
  {
    "name": "Cleveland",
    "state": "OH",
    "pop": 390113,
    "lat": 41.499320000000004,
    "lon": -81.6943605,
    "capital": false
  },
  {
    "name": "Wichita",
    "state": "KS",
    "pop": 386552,
    "lat": 37.688889,
    "lon": -97.336111,
    "capital": false
  },
  {
    "name": "Arlington",
    "state": "TX",
    "pop": 379577,
    "lat": 32.735687,
    "lon": -97.10806559999999,
    "capital": false
  },
  {
    "name": "New Orleans",
    "state": "LA",
    "pop": 378715,
    "lat": 29.9510658,
    "lon": -90.0715323,
    "capital": false
  },
  {
    "name": "Bakersfield",
    "state": "CA",
    "pop": 363630,
    "lat": 35.3732921,
    "lon": -119.0187125,
    "capital": false
  },
  {
    "name": "Tampa",
    "state": "FL",
    "pop": 352957,
    "lat": 27.950575,
    "lon": -82.4571776,
    "capital": false
  },
  {
    "name": "Aurora",
    "state": "CO",
    "pop": 345803,
    "lat": 39.729431899999994,
    "lon": -104.8319195,
    "capital": false
  },
  {
    "name": "Anaheim",
    "state": "CA",
    "pop": 345012,
    "lat": 33.8352932,
    "lon": -117.91450359999999,
    "capital": false
  },
  {
    "name": "Santa Ana",
    "state": "CA",
    "pop": 334227,
    "lat": 33.7455731,
    "lon": -117.8678338,
    "capital": false
  },
  {
    "name": "St. Louis",
    "state": "MO",
    "pop": 318416,
    "lat": 38.6270025,
    "lon": -90.1994042,
    "capital": false
  },
  {
    "name": "Riverside",
    "state": "CA",
    "pop": 316619,
    "lat": 33.9533487,
    "lon": -117.3961564,
    "capital": false
  },
  {
    "name": "Corpus Christi",
    "state": "TX",
    "pop": 316381,
    "lat": 27.800582799999997,
    "lon": -97.396381,
    "capital": false
  },
  {
    "name": "Lexington-Fayette",
    "state": "KY",
    "pop": 308428,
    "lat": 38.040583700000006,
    "lon": -84.50371640000002,
    "capital": false
  },
  {
    "name": "Pittsburgh",
    "state": "PA",
    "pop": 305841,
    "lat": 40.440624799999995,
    "lon": -79.9958864,
    "capital": false
  },
  {
    "name": "Saint Paul",
    "state": "MN",
    "pop": 300000,
    "lat": 44.9537,
    "lon": -93.09,
    "capital": true
  },
  {
    "name": "Stockton",
    "state": "CA",
    "pop": 298118,
    "lat": 37.9577016,
    "lon": -121.29077959999998,
    "capital": false
  },
  {
    "name": "Cincinnati",
    "state": "OH",
    "pop": 297517,
    "lat": 39.103118200000004,
    "lon": -84.5120196,
    "capital": false
  },
  {
    "name": "St. Paul",
    "state": "MN",
    "pop": 294873,
    "lat": 44.953702899999996,
    "lon": -93.0899578,
    "capital": false
  },
  {
    "name": "Toledo",
    "state": "OH",
    "pop": 282313,
    "lat": 41.6639383,
    "lon": -83.555212,
    "capital": false
  },
  {
    "name": "Greensboro",
    "state": "NC",
    "pop": 279639,
    "lat": 36.072635399999996,
    "lon": -79.79197540000001,
    "capital": false
  },
  {
    "name": "Newark",
    "state": "NJ",
    "pop": 278427,
    "lat": 40.735657,
    "lon": -74.1723667,
    "capital": false
  },
  {
    "name": "Plano",
    "state": "TX",
    "pop": 274409,
    "lat": 33.0198431,
    "lon": -96.6988856,
    "capital": false
  },
  {
    "name": "Henderson",
    "state": "NV",
    "pop": 270811,
    "lat": 36.0395247,
    "lon": -114.9817213,
    "capital": false
  },
  {
    "name": "Lincoln",
    "state": "NE",
    "pop": 268738,
    "lat": 40.8257625,
    "lon": -96.6851982,
    "capital": true
  },
  {
    "name": "Buffalo",
    "state": "NY",
    "pop": 258959,
    "lat": 42.8864468,
    "lon": -78.8783689,
    "capital": false
  },
  {
    "name": "Jersey City",
    "state": "NJ",
    "pop": 257342,
    "lat": 40.7281575,
    "lon": -74.0776417,
    "capital": false
  },
  {
    "name": "Chula Vista",
    "state": "CA",
    "pop": 256780,
    "lat": 32.6400541,
    "lon": -117.0841955,
    "capital": false
  },
  {
    "name": "Fort Wayne",
    "state": "IN",
    "pop": 256496,
    "lat": 41.079273,
    "lon": -85.13935129999999,
    "capital": false
  },
  {
    "name": "Orlando",
    "state": "FL",
    "pop": 255483,
    "lat": 28.5383355,
    "lon": -81.3792365,
    "capital": false
  },
  {
    "name": "St. Petersburg",
    "state": "FL",
    "pop": 249688,
    "lat": 27.773056,
    "lon": -82.64,
    "capital": false
  },
  {
    "name": "Chandler",
    "state": "AZ",
    "pop": 249146,
    "lat": 33.3061605,
    "lon": -111.8412502,
    "capital": false
  },
  {
    "name": "Laredo",
    "state": "TX",
    "pop": 248142,
    "lat": 27.530567100000003,
    "lon": -99.48032409999999,
    "capital": false
  },
  {
    "name": "Norfolk",
    "state": "VA",
    "pop": 246139,
    "lat": 36.8507689,
    "lon": -76.28587259999999,
    "capital": false
  },
  {
    "name": "Durham",
    "state": "NC",
    "pop": 245475,
    "lat": 35.99403289999999,
    "lon": -78.898619,
    "capital": false
  },
  {
    "name": "Madison",
    "state": "WI",
    "pop": 243344,
    "lat": 43.07305170000001,
    "lon": -89.4012302,
    "capital": true
  },
  {
    "name": "Lubbock",
    "state": "TX",
    "pop": 239538,
    "lat": 33.5778631,
    "lon": -101.85516650000001,
    "capital": false
  },
  {
    "name": "Irvine",
    "state": "CA",
    "pop": 236716,
    "lat": 33.6839473,
    "lon": -117.79469420000001,
    "capital": false
  },
  {
    "name": "Winston-Salem",
    "state": "NC",
    "pop": 236441,
    "lat": 36.0998596,
    "lon": -80.24421600000001,
    "capital": false
  },
  {
    "name": "Glendale",
    "state": "AZ",
    "pop": 234632,
    "lat": 33.538652299999995,
    "lon": -112.18598659999999,
    "capital": false
  },
  {
    "name": "Garland",
    "state": "TX",
    "pop": 234566,
    "lat": 32.912624,
    "lon": -96.6388833,
    "capital": false
  },
  {
    "name": "Hialeah",
    "state": "FL",
    "pop": 233394,
    "lat": 25.8575963,
    "lon": -80.2781057,
    "capital": false
  },
  {
    "name": "Reno",
    "state": "NV",
    "pop": 233294,
    "lat": 39.529632899999996,
    "lon": -119.8138027,
    "capital": false
  },
  {
    "name": "Chesapeake",
    "state": "VA",
    "pop": 230571,
    "lat": 36.7682088,
    "lon": -76.2874927,
    "capital": false
  },
  {
    "name": "Gilbert",
    "state": "AZ",
    "pop": 229972,
    "lat": 33.3528264,
    "lon": -111.789027,
    "capital": false
  },
  {
    "name": "Baton Rouge",
    "state": "LA",
    "pop": 229426,
    "lat": 30.458282899999997,
    "lon": -91.1403196,
    "capital": true
  },
  {
    "name": "Irving",
    "state": "TX",
    "pop": 228653,
    "lat": 32.814017699999994,
    "lon": -96.9488945,
    "capital": false
  },
  {
    "name": "Scottsdale",
    "state": "AZ",
    "pop": 226918,
    "lat": 33.494170399999994,
    "lon": -111.9260519,
    "capital": false
  },
  {
    "name": "North Las Vegas",
    "state": "NV",
    "pop": 226877,
    "lat": 36.1988592,
    "lon": -115.1175013,
    "capital": false
  },
  {
    "name": "Fremont",
    "state": "CA",
    "pop": 224922,
    "lat": 37.548269700000006,
    "lon": -121.98857190000001,
    "capital": false
  },
  {
    "name": "Boise City",
    "state": "ID",
    "pop": 214237,
    "lat": 43.6187102,
    "lon": -116.2146068,
    "capital": true
  },
  {
    "name": "Richmond",
    "state": "VA",
    "pop": 214114,
    "lat": 37.540724600000004,
    "lon": -77.4360481,
    "capital": true
  },
  {
    "name": "San Bernardino",
    "state": "CA",
    "pop": 213708,
    "lat": 34.1083449,
    "lon": -117.2897652,
    "capital": false
  },
  {
    "name": "Birmingham",
    "state": "AL",
    "pop": 212113,
    "lat": 33.5206608,
    "lon": -86.80249,
    "capital": false
  },
  {
    "name": "Spokane",
    "state": "WA",
    "pop": 210721,
    "lat": 47.6587802,
    "lon": -117.4260466,
    "capital": false
  },
  {
    "name": "Rochester",
    "state": "NY",
    "pop": 210358,
    "lat": 43.16103,
    "lon": -77.61092190000001,
    "capital": false
  },
  {
    "name": "Des Moines",
    "state": "IA",
    "pop": 207510,
    "lat": 41.600544799999994,
    "lon": -93.6091064,
    "capital": true
  },
  {
    "name": "Modesto",
    "state": "CA",
    "pop": 204933,
    "lat": 37.6390972,
    "lon": -120.99687820000001,
    "capital": false
  },
  {
    "name": "Fayetteville",
    "state": "NC",
    "pop": 204408,
    "lat": 35.0526641,
    "lon": -78.87835849999999,
    "capital": false
  },
  {
    "name": "Tacoma",
    "state": "WA",
    "pop": 203446,
    "lat": 47.252876799999996,
    "lon": -122.4442906,
    "capital": false
  },
  {
    "name": "Oxnard",
    "state": "CA",
    "pop": 203007,
    "lat": 34.1975048,
    "lon": -119.17705159999998,
    "capital": false
  },
  {
    "name": "Fontana",
    "state": "CA",
    "pop": 203003,
    "lat": 34.0922335,
    "lon": -117.435048,
    "capital": false
  },
  {
    "name": "Columbus",
    "state": "GA",
    "pop": 202824,
    "lat": 32.4609764,
    "lon": -84.9877094,
    "capital": false
  },
  {
    "name": "Montgomery",
    "state": "AL",
    "pop": 201332,
    "lat": 32.366805199999995,
    "lon": -86.2999689,
    "capital": true
  },
  {
    "name": "Moreno Valley",
    "state": "CA",
    "pop": 201175,
    "lat": 33.9424658,
    "lon": -117.2296717,
    "capital": false
  },
  {
    "name": "Shreveport",
    "state": "LA",
    "pop": 200327,
    "lat": 32.5251516,
    "lon": -93.75017890000001,
    "capital": false
  },
  {
    "name": "Aurora",
    "state": "IL",
    "pop": 199963,
    "lat": 41.7605849,
    "lon": -88.3200715,
    "capital": false
  },
  {
    "name": "Yonkers",
    "state": "NY",
    "pop": 199766,
    "lat": 40.9312099,
    "lon": -73.8987469,
    "capital": false
  },
  {
    "name": "Akron",
    "state": "OH",
    "pop": 198100,
    "lat": 41.081444700000006,
    "lon": -81.51900529999999,
    "capital": false
  },
  {
    "name": "Huntington Beach",
    "state": "CA",
    "pop": 197575,
    "lat": 33.660297,
    "lon": -117.99922649999999,
    "capital": false
  },
  {
    "name": "Little Rock",
    "state": "AR",
    "pop": 197357,
    "lat": 34.7464809,
    "lon": -92.2895948,
    "capital": true
  },
  {
    "name": "Augusta-Richmond County",
    "state": "GA",
    "pop": 197350,
    "lat": 33.4734978,
    "lon": -82.0105148,
    "capital": false
  },
  {
    "name": "Amarillo",
    "state": "TX",
    "pop": 196429,
    "lat": 35.2219971,
    "lon": -101.8312969,
    "capital": false
  },
  {
    "name": "Glendale",
    "state": "CA",
    "pop": 196021,
    "lat": 34.1425078,
    "lon": -118.255075,
    "capital": false
  },
  {
    "name": "Mobile",
    "state": "AL",
    "pop": 194899,
    "lat": 30.6953657,
    "lon": -88.0398912,
    "capital": false
  },
  {
    "name": "Grand Rapids",
    "state": "MI",
    "pop": 192294,
    "lat": 42.9633599,
    "lon": -85.6680863,
    "capital": false
  },
  {
    "name": "Salt Lake City",
    "state": "UT",
    "pop": 191180,
    "lat": 40.760779299999996,
    "lon": -111.89104740000002,
    "capital": true
  },
  {
    "name": "Tallahassee",
    "state": "FL",
    "pop": 186411,
    "lat": 30.4382559,
    "lon": -84.2807329,
    "capital": true
  },
  {
    "name": "Huntsville",
    "state": "AL",
    "pop": 186254,
    "lat": 34.730368799999994,
    "lon": -86.5861037,
    "capital": false
  },
  {
    "name": "Grand Prairie",
    "state": "TX",
    "pop": 183372,
    "lat": 32.7459645,
    "lon": -96.99778459999999,
    "capital": false
  },
  {
    "name": "Knoxville",
    "state": "TN",
    "pop": 183270,
    "lat": 35.96063839999999,
    "lon": -83.9207392,
    "capital": false
  },
  {
    "name": "Worcester",
    "state": "MA",
    "pop": 182544,
    "lat": 42.262593200000005,
    "lon": -71.8022934,
    "capital": false
  },
  {
    "name": "Newport News",
    "state": "VA",
    "pop": 182020,
    "lat": 37.087082099999996,
    "lon": -76.4730122,
    "capital": false
  },
  {
    "name": "Brownsville",
    "state": "TX",
    "pop": 181860,
    "lat": 25.9017472,
    "lon": -97.4974838,
    "capital": false
  },
  {
    "name": "Overland Park",
    "state": "KS",
    "pop": 181260,
    "lat": 38.9822282,
    "lon": -94.6707917,
    "capital": false
  },
  {
    "name": "Santa Clarita",
    "state": "CA",
    "pop": 179590,
    "lat": 34.3916641,
    "lon": -118.54258600000001,
    "capital": false
  },
  {
    "name": "Providence",
    "state": "RI",
    "pop": 177994,
    "lat": 41.8239891,
    "lon": -71.4128343,
    "capital": true
  },
  {
    "name": "Garden Grove",
    "state": "CA",
    "pop": 175140,
    "lat": 33.773905299999996,
    "lon": -117.9414477,
    "capital": false
  },
  {
    "name": "Chattanooga",
    "state": "TN",
    "pop": 173366,
    "lat": 35.0456297,
    "lon": -85.3096801,
    "capital": false
  },
  {
    "name": "Oceanside",
    "state": "CA",
    "pop": 172794,
    "lat": 33.1958696,
    "lon": -117.3794834,
    "capital": false
  },
  {
    "name": "Jackson",
    "state": "MS",
    "pop": 172638,
    "lat": 32.298757300000005,
    "lon": -90.1848103,
    "capital": true
  },
  {
    "name": "Fort Lauderdale",
    "state": "FL",
    "pop": 172389,
    "lat": 26.122438600000002,
    "lon": -80.13731740000001,
    "capital": false
  },
  {
    "name": "Santa Rosa",
    "state": "CA",
    "pop": 171990,
    "lat": 38.440428999999995,
    "lon": -122.7140548,
    "capital": false
  },
  {
    "name": "Rancho Cucamonga",
    "state": "CA",
    "pop": 171386,
    "lat": 34.1063989,
    "lon": -117.5931084,
    "capital": false
  },
  {
    "name": "Port St. Lucie",
    "state": "FL",
    "pop": 171016,
    "lat": 27.273049199999996,
    "lon": -80.3582261,
    "capital": false
  },
  {
    "name": "Tempe",
    "state": "AZ",
    "pop": 168228,
    "lat": 33.4255104,
    "lon": -111.9400054,
    "capital": false
  },
  {
    "name": "Ontario",
    "state": "CA",
    "pop": 167500,
    "lat": 34.0633443,
    "lon": -117.65088759999999,
    "capital": false
  },
  {
    "name": "Vancouver",
    "state": "WA",
    "pop": 167405,
    "lat": 45.6387281,
    "lon": -122.6614861,
    "capital": false
  },
  {
    "name": "Cape Coral",
    "state": "FL",
    "pop": 165831,
    "lat": 26.5628537,
    "lon": -81.94953309999998,
    "capital": false
  },
  {
    "name": "Sioux Falls",
    "state": "SD",
    "pop": 164676,
    "lat": 43.5445959,
    "lon": -96.73110340000001,
    "capital": false
  },
  {
    "name": "Springfield",
    "state": "MO",
    "pop": 164122,
    "lat": 37.20895720000001,
    "lon": -93.2922989,
    "capital": false
  },
  {
    "name": "Peoria",
    "state": "AZ",
    "pop": 162592,
    "lat": 33.5805955,
    "lon": -112.23737790000001,
    "capital": false
  },
  {
    "name": "Pembroke Pines",
    "state": "FL",
    "pop": 162329,
    "lat": 26.007765,
    "lon": -80.2962555,
    "capital": false
  },
  {
    "name": "Elk Grove",
    "state": "CA",
    "pop": 161007,
    "lat": 38.4087993,
    "lon": -121.37161780000001,
    "capital": false
  },
  {
    "name": "Salem",
    "state": "OR",
    "pop": 160614,
    "lat": 44.9428975,
    "lon": -123.03509629999999,
    "capital": true
  },
  {
    "name": "Lancaster",
    "state": "CA",
    "pop": 159523,
    "lat": 34.6867846,
    "lon": -118.1541632,
    "capital": false
  },
  {
    "name": "Corona",
    "state": "CA",
    "pop": 159503,
    "lat": 33.8752935,
    "lon": -117.56643840000001,
    "capital": false
  },
  {
    "name": "Eugene",
    "state": "OR",
    "pop": 159190,
    "lat": 44.0520691,
    "lon": -123.08675359999998,
    "capital": false
  },
  {
    "name": "Palmdale",
    "state": "CA",
    "pop": 157161,
    "lat": 34.5794343,
    "lon": -118.11646129999998,
    "capital": false
  },
  {
    "name": "Salinas",
    "state": "CA",
    "pop": 155662,
    "lat": 36.6777372,
    "lon": -121.6555013,
    "capital": false
  },
  {
    "name": "Springfield",
    "state": "MA",
    "pop": 153703,
    "lat": 42.1014831,
    "lon": -72.589811,
    "capital": false
  },
  {
    "name": "Pasadena",
    "state": "TX",
    "pop": 152735,
    "lat": 29.6910625,
    "lon": -95.2091006,
    "capital": false
  },
  {
    "name": "Fort Collins",
    "state": "CO",
    "pop": 152061,
    "lat": 40.5852602,
    "lon": -105.084423,
    "capital": false
  },
  {
    "name": "Hayward",
    "state": "CA",
    "pop": 151574,
    "lat": 37.6688205,
    "lon": -122.08079640000001,
    "capital": false
  },
  {
    "name": "Pomona",
    "state": "CA",
    "pop": 151348,
    "lat": 34.055103,
    "lon": -117.7499909,
    "capital": false
  },
  {
    "name": "Cary",
    "state": "NC",
    "pop": 151088,
    "lat": 35.791540000000005,
    "lon": -78.78111690000001,
    "capital": false
  },
  {
    "name": "Rockford",
    "state": "IL",
    "pop": 150251,
    "lat": 42.2711311,
    "lon": -89.09399520000001,
    "capital": false
  },
  {
    "name": "Alexandria",
    "state": "VA",
    "pop": 148892,
    "lat": 38.804835499999996,
    "lon": -77.0469214,
    "capital": false
  },
  {
    "name": "Escondido",
    "state": "CA",
    "pop": 148738,
    "lat": 33.1192068,
    "lon": -117.086421,
    "capital": false
  },
  {
    "name": "McKinney",
    "state": "TX",
    "pop": 148559,
    "lat": 33.197246500000006,
    "lon": -96.6397822,
    "capital": false
  },
  {
    "name": "Kansas City",
    "state": "KS",
    "pop": 148483,
    "lat": 39.114053000000006,
    "lon": -94.6274636,
    "capital": false
  },
  {
    "name": "Joliet",
    "state": "IL",
    "pop": 147806,
    "lat": 41.525031,
    "lon": -88.0817251,
    "capital": false
  },
  {
    "name": "Sunnyvale",
    "state": "CA",
    "pop": 147559,
    "lat": 37.368829999999996,
    "lon": -122.03634960000001,
    "capital": false
  },
  {
    "name": "Torrance",
    "state": "CA",
    "pop": 147478,
    "lat": 33.835849200000006,
    "lon": -118.34062879999999,
    "capital": false
  },
  {
    "name": "Bridgeport",
    "state": "CT",
    "pop": 147216,
    "lat": 41.18654779999999,
    "lon": -73.1951767,
    "capital": false
  },
  {
    "name": "Lakewood",
    "state": "CO",
    "pop": 147214,
    "lat": 39.7047095,
    "lon": -105.08137340000002,
    "capital": false
  },
  {
    "name": "Hollywood",
    "state": "FL",
    "pop": 146526,
    "lat": 26.0112014,
    "lon": -80.1494901,
    "capital": false
  },
  {
    "name": "Paterson",
    "state": "NJ",
    "pop": 145948,
    "lat": 40.916765399999996,
    "lon": -74.171811,
    "capital": false
  },
  {
    "name": "Naperville",
    "state": "IL",
    "pop": 144864,
    "lat": 41.7508391,
    "lon": -88.15353520000001,
    "capital": false
  },
  {
    "name": "Syracuse",
    "state": "NY",
    "pop": 144669,
    "lat": 43.0481221,
    "lon": -76.1474244,
    "capital": false
  },
  {
    "name": "Mesquite",
    "state": "TX",
    "pop": 143484,
    "lat": 32.7667955,
    "lon": -96.5991593,
    "capital": false
  },
  {
    "name": "Dayton",
    "state": "OH",
    "pop": 143355,
    "lat": 39.758947799999994,
    "lon": -84.1916069,
    "capital": false
  },
  {
    "name": "Savannah",
    "state": "GA",
    "pop": 142772,
    "lat": 32.0835407,
    "lon": -81.0998342,
    "capital": false
  },
  {
    "name": "Clarksville",
    "state": "TN",
    "pop": 142357,
    "lat": 36.5297706,
    "lon": -87.3594528,
    "capital": false
  },
  {
    "name": "Orange",
    "state": "CA",
    "pop": 139969,
    "lat": 33.787794399999996,
    "lon": -117.8531119,
    "capital": false
  },
  {
    "name": "Pasadena",
    "state": "CA",
    "pop": 139731,
    "lat": 34.1477849,
    "lon": -118.1445155,
    "capital": false
  },
  {
    "name": "Fullerton",
    "state": "CA",
    "pop": 138981,
    "lat": 33.8703596,
    "lon": -117.9242966,
    "capital": false
  },
  {
    "name": "Killeen",
    "state": "TX",
    "pop": 137147,
    "lat": 31.117119399999996,
    "lon": -97.7277959,
    "capital": false
  },
  {
    "name": "Frisco",
    "state": "TX",
    "pop": 136791,
    "lat": 33.1506744,
    "lon": -96.82361159999999,
    "capital": false
  },
  {
    "name": "Hampton",
    "state": "VA",
    "pop": 136699,
    "lat": 37.0298687,
    "lon": -76.3452218,
    "capital": false
  },
  {
    "name": "McAllen",
    "state": "TX",
    "pop": 136639,
    "lat": 26.203407100000003,
    "lon": -98.2300124,
    "capital": false
  },
  {
    "name": "Warren",
    "state": "MI",
    "pop": 134873,
    "lat": 42.5144566,
    "lon": -83.01465259999999,
    "capital": false
  },
  {
    "name": "Bellevue",
    "state": "WA",
    "pop": 133992,
    "lat": 47.610377,
    "lon": -122.20067859999999,
    "capital": false
  },
  {
    "name": "West Valley City",
    "state": "UT",
    "pop": 133579,
    "lat": 40.691613200000006,
    "lon": -112.00105009999999,
    "capital": false
  },
  {
    "name": "Columbia",
    "state": "SC",
    "pop": 133358,
    "lat": 34.0007104,
    "lon": -81.0348144,
    "capital": true
  },
  {
    "name": "Olathe",
    "state": "KS",
    "pop": 131885,
    "lat": 38.8813958,
    "lon": -94.8191285,
    "capital": false
  },
  {
    "name": "Sterling Heights",
    "state": "MI",
    "pop": 131224,
    "lat": 42.5803122,
    "lon": -83.0302033,
    "capital": false
  },
  {
    "name": "New Haven",
    "state": "CT",
    "pop": 130660,
    "lat": 41.308274,
    "lon": -72.9278835,
    "capital": false
  },
  {
    "name": "Miramar",
    "state": "FL",
    "pop": 130288,
    "lat": 25.9860762,
    "lon": -80.3035602,
    "capital": false
  },
  {
    "name": "Waco",
    "state": "TX",
    "pop": 129030,
    "lat": 31.549333,
    "lon": -97.1466695,
    "capital": false
  },
  {
    "name": "Thousand Oaks",
    "state": "CA",
    "pop": 128731,
    "lat": 34.1705609,
    "lon": -118.83759369999999,
    "capital": false
  },
  {
    "name": "Cedar Rapids",
    "state": "IA",
    "pop": 128429,
    "lat": 41.9778795,
    "lon": -91.66562320000001,
    "capital": false
  },
  {
    "name": "Charleston",
    "state": "SC",
    "pop": 127999,
    "lat": 32.776474900000004,
    "lon": -79.9310512,
    "capital": false
  },
  {
    "name": "Visalia",
    "state": "CA",
    "pop": 127763,
    "lat": 36.330228399999996,
    "lon": -119.2920585,
    "capital": false
  },
  {
    "name": "Topeka",
    "state": "KS",
    "pop": 127679,
    "lat": 39.055823499999995,
    "lon": -95.6890185,
    "capital": true
  },
  {
    "name": "Elizabeth",
    "state": "NJ",
    "pop": 127558,
    "lat": 40.6639916,
    "lon": -74.2107006,
    "capital": false
  },
  {
    "name": "Gainesville",
    "state": "FL",
    "pop": 127488,
    "lat": 29.6516344,
    "lon": -82.3248262,
    "capital": false
  },
  {
    "name": "Thornton",
    "state": "CO",
    "pop": 127359,
    "lat": 39.8680412,
    "lon": -104.9719243,
    "capital": false
  },
  {
    "name": "Roseville",
    "state": "CA",
    "pop": 127035,
    "lat": 38.752123499999996,
    "lon": -121.28800590000002,
    "capital": false
  },
  {
    "name": "Carrollton",
    "state": "TX",
    "pop": 126700,
    "lat": 32.975641499999995,
    "lon": -96.88996359999999,
    "capital": false
  },
  {
    "name": "Coral Springs",
    "state": "FL",
    "pop": 126604,
    "lat": 26.271192,
    "lon": -80.27060440000001,
    "capital": false
  },
  {
    "name": "Stamford",
    "state": "CT",
    "pop": 126456,
    "lat": 41.0534302,
    "lon": -73.53873409999999,
    "capital": false
  },
  {
    "name": "Simi Valley",
    "state": "CA",
    "pop": 126181,
    "lat": 34.2694474,
    "lon": -118.78148200000001,
    "capital": false
  },
  {
    "name": "Concord",
    "state": "CA",
    "pop": 125880,
    "lat": 37.9779776,
    "lon": -122.0310733,
    "capital": false
  },
  {
    "name": "Hartford",
    "state": "CT",
    "pop": 125017,
    "lat": 41.7637111,
    "lon": -72.6850932,
    "capital": true
  },
  {
    "name": "Kent",
    "state": "WA",
    "pop": 124435,
    "lat": 47.380933500000005,
    "lon": -122.23484309999999,
    "capital": false
  },
  {
    "name": "Lafayette",
    "state": "LA",
    "pop": 124276,
    "lat": 30.2240897,
    "lon": -92.0198427,
    "capital": false
  },
  {
    "name": "Midland",
    "state": "TX",
    "pop": 123933,
    "lat": 31.9973456,
    "lon": -102.0779146,
    "capital": false
  },
  {
    "name": "Surprise",
    "state": "AZ",
    "pop": 123546,
    "lat": 33.62923370000001,
    "lon": -112.36792790000001,
    "capital": false
  },
  {
    "name": "Denton",
    "state": "TX",
    "pop": 123099,
    "lat": 33.2148412,
    "lon": -97.13306829999999,
    "capital": false
  },
  {
    "name": "Victorville",
    "state": "CA",
    "pop": 121096,
    "lat": 34.5362184,
    "lon": -117.29276409999999,
    "capital": false
  },
  {
    "name": "Evansville",
    "state": "IN",
    "pop": 120310,
    "lat": 37.9715592,
    "lon": -87.5710898,
    "capital": false
  },
  {
    "name": "Santa Clara",
    "state": "CA",
    "pop": 120245,
    "lat": 37.354107899999995,
    "lon": -121.9552356,
    "capital": false
  },
  {
    "name": "Abilene",
    "state": "TX",
    "pop": 120099,
    "lat": 32.4487364,
    "lon": -99.7331439,
    "capital": false
  },
  {
    "name": "Athens-Clarke County",
    "state": "GA",
    "pop": 119980,
    "lat": 33.9519347,
    "lon": -83.357567,
    "capital": false
  },
  {
    "name": "Vallejo",
    "state": "CA",
    "pop": 118837,
    "lat": 38.1040864,
    "lon": -122.25663670000002,
    "capital": false
  },
  {
    "name": "Allentown",
    "state": "PA",
    "pop": 118577,
    "lat": 40.6084305,
    "lon": -75.4901833,
    "capital": false
  },
  {
    "name": "Norman",
    "state": "OK",
    "pop": 118197,
    "lat": 35.222566799999996,
    "lon": -97.4394777,
    "capital": false
  },
  {
    "name": "Beaumont",
    "state": "TX",
    "pop": 117796,
    "lat": 30.080174,
    "lon": -94.12655620000001,
    "capital": false
  },
  {
    "name": "Independence",
    "state": "MO",
    "pop": 117240,
    "lat": 39.0911161,
    "lon": -94.4155068,
    "capital": false
  },
  {
    "name": "Murfreesboro",
    "state": "TN",
    "pop": 117044,
    "lat": 35.8456213,
    "lon": -86.39027,
    "capital": false
  },
  {
    "name": "Ann Arbor",
    "state": "MI",
    "pop": 117025,
    "lat": 42.2808256,
    "lon": -83.7430378,
    "capital": false
  },
  {
    "name": "Springfield",
    "state": "IL",
    "pop": 117006,
    "lat": 39.7817213,
    "lon": -89.6501481,
    "capital": true
  },
  {
    "name": "Berkeley",
    "state": "CA",
    "pop": 116768,
    "lat": 37.87159260000001,
    "lon": -122.272747,
    "capital": false
  },
  {
    "name": "Peoria",
    "state": "IL",
    "pop": 116513,
    "lat": 40.6936488,
    "lon": -89.58898640000001,
    "capital": false
  },
  {
    "name": "Provo",
    "state": "UT",
    "pop": 116288,
    "lat": 40.233843799999995,
    "lon": -111.6585337,
    "capital": false
  },
  {
    "name": "El Monte",
    "state": "CA",
    "pop": 115708,
    "lat": 34.0686206,
    "lon": -118.02756670000001,
    "capital": false
  },
  {
    "name": "Columbia",
    "state": "MO",
    "pop": 115276,
    "lat": 38.95170529999999,
    "lon": -92.33407240000001,
    "capital": false
  },
  {
    "name": "Lansing",
    "state": "MI",
    "pop": 113972,
    "lat": 42.732535,
    "lon": -84.55553470000001,
    "capital": true
  },
  {
    "name": "Fargo",
    "state": "ND",
    "pop": 113658,
    "lat": 46.8771863,
    "lon": -96.78980340000001,
    "capital": false
  },
  {
    "name": "Downey",
    "state": "CA",
    "pop": 113242,
    "lat": 33.9401088,
    "lon": -118.13315929999999,
    "capital": false
  },
  {
    "name": "Costa Mesa",
    "state": "CA",
    "pop": 112174,
    "lat": 33.6411316,
    "lon": -117.9186689,
    "capital": false
  },
  {
    "name": "Wilmington",
    "state": "NC",
    "pop": 112067,
    "lat": 34.2257255,
    "lon": -77.9447102,
    "capital": false
  },
  {
    "name": "Arvada",
    "state": "CO",
    "pop": 111707,
    "lat": 39.802764399999994,
    "lon": -105.08748419999999,
    "capital": false
  },
  {
    "name": "Inglewood",
    "state": "CA",
    "pop": 111542,
    "lat": 33.9616801,
    "lon": -118.3531311,
    "capital": false
  },
  {
    "name": "Miami Gardens",
    "state": "FL",
    "pop": 111378,
    "lat": 25.942037699999997,
    "lon": -80.2456045,
    "capital": false
  },
  {
    "name": "Carlsbad",
    "state": "CA",
    "pop": 110972,
    "lat": 33.158093300000004,
    "lon": -117.3505939,
    "capital": false
  },
  {
    "name": "Westminster",
    "state": "CO",
    "pop": 110945,
    "lat": 39.836652799999996,
    "lon": -105.03720459999998,
    "capital": false
  },
  {
    "name": "Rochester",
    "state": "MN",
    "pop": 110742,
    "lat": 44.0121221,
    "lon": -92.4801989,
    "capital": false
  },
  {
    "name": "Odessa",
    "state": "TX",
    "pop": 110720,
    "lat": 31.8456816,
    "lon": -102.3676431,
    "capital": false
  },
  {
    "name": "Manchester",
    "state": "NH",
    "pop": 110378,
    "lat": 42.995639700000005,
    "lon": -71.4547891,
    "capital": false
  },
  {
    "name": "Elgin",
    "state": "IL",
    "pop": 110145,
    "lat": 42.035408399999994,
    "lon": -88.2825668,
    "capital": false
  },
  {
    "name": "West Jordan",
    "state": "UT",
    "pop": 110077,
    "lat": 40.6096698,
    "lon": -111.9391031,
    "capital": false
  },
  {
    "name": "Round Rock",
    "state": "TX",
    "pop": 109821,
    "lat": 30.508255100000003,
    "lon": -97.678896,
    "capital": false
  },
  {
    "name": "Clearwater",
    "state": "FL",
    "pop": 109703,
    "lat": 27.9658533,
    "lon": -82.8001026,
    "capital": false
  },
  {
    "name": "Waterbury",
    "state": "CT",
    "pop": 109676,
    "lat": 41.558152500000006,
    "lon": -73.0514965,
    "capital": false
  },
  {
    "name": "Gresham",
    "state": "OR",
    "pop": 109397,
    "lat": 45.5001357,
    "lon": -122.43020130000001,
    "capital": false
  },
  {
    "name": "Fairfield",
    "state": "CA",
    "pop": 109320,
    "lat": 38.2493581,
    "lon": -122.03996629999999,
    "capital": false
  },
  {
    "name": "Billings",
    "state": "MT",
    "pop": 109059,
    "lat": 45.783285600000006,
    "lon": -108.50069040000001,
    "capital": false
  },
  {
    "name": "Lowell",
    "state": "MA",
    "pop": 108861,
    "lat": 42.633424700000006,
    "lon": -71.3161718,
    "capital": false
  },
  {
    "name": "San Buenaventura (Ventura)",
    "state": "CA",
    "pop": 108817,
    "lat": 34.274646000000004,
    "lon": -119.22903159999998,
    "capital": false
  },
  {
    "name": "Pueblo",
    "state": "CO",
    "pop": 108249,
    "lat": 38.2544472,
    "lon": -104.60914090000001,
    "capital": false
  },
  {
    "name": "High Point",
    "state": "NC",
    "pop": 107741,
    "lat": 35.955692299999995,
    "lon": -80.0053176,
    "capital": false
  },
  {
    "name": "West Covina",
    "state": "CA",
    "pop": 107740,
    "lat": 34.0686208,
    "lon": -117.93895259999998,
    "capital": false
  },
  {
    "name": "Richmond",
    "state": "CA",
    "pop": 107571,
    "lat": 37.9357576,
    "lon": -122.3477486,
    "capital": false
  },
  {
    "name": "Murrieta",
    "state": "CA",
    "pop": 107479,
    "lat": 33.553914299999995,
    "lon": -117.21392320000001,
    "capital": false
  },
  {
    "name": "Cambridge",
    "state": "MA",
    "pop": 107289,
    "lat": 42.373615799999996,
    "lon": -71.10973349999999,
    "capital": false
  },
  {
    "name": "Antioch",
    "state": "CA",
    "pop": 107100,
    "lat": 38.0049214,
    "lon": -121.80578899999999,
    "capital": false
  },
  {
    "name": "Temecula",
    "state": "CA",
    "pop": 106780,
    "lat": 33.4936391,
    "lon": -117.14836480000001,
    "capital": false
  },
  {
    "name": "Norwalk",
    "state": "CA",
    "pop": 106589,
    "lat": 33.9022367,
    "lon": -118.08173300000001,
    "capital": false
  },
  {
    "name": "Centennial",
    "state": "CO",
    "pop": 106114,
    "lat": 39.5807452,
    "lon": -104.87717260000001,
    "capital": false
  },
  {
    "name": "Everett",
    "state": "WA",
    "pop": 105370,
    "lat": 47.9789848,
    "lon": -122.2020794,
    "capital": false
  },
  {
    "name": "Wichita Falls",
    "state": "TX",
    "pop": 104898,
    "lat": 33.913708500000006,
    "lon": -98.49338730000001,
    "capital": false
  },
  {
    "name": "Palm Bay",
    "state": "FL",
    "pop": 104898,
    "lat": 28.034462100000006,
    "lon": -80.5886646,
    "capital": false
  },
  {
    "name": "Green Bay",
    "state": "WI",
    "pop": 104779,
    "lat": 44.519159,
    "lon": -88.019826,
    "capital": false
  },
  {
    "name": "Daly City",
    "state": "CA",
    "pop": 104739,
    "lat": 37.687924100000004,
    "lon": -122.47020790000002,
    "capital": false
  },
  {
    "name": "Burbank",
    "state": "CA",
    "pop": 104709,
    "lat": 34.18083920000001,
    "lon": -118.30896609999998,
    "capital": false
  },
  {
    "name": "Richardson",
    "state": "TX",
    "pop": 104475,
    "lat": 32.948333500000004,
    "lon": -96.72985190000001,
    "capital": false
  },
  {
    "name": "Pompano Beach",
    "state": "FL",
    "pop": 104410,
    "lat": 26.2378597,
    "lon": -80.1247667,
    "capital": false
  },
  {
    "name": "North Charleston",
    "state": "SC",
    "pop": 104054,
    "lat": 32.8546197,
    "lon": -79.9748103,
    "capital": false
  },
  {
    "name": "Broken Arrow",
    "state": "OK",
    "pop": 103500,
    "lat": 36.060949,
    "lon": -95.7974526,
    "capital": false
  },
  {
    "name": "Boulder",
    "state": "CO",
    "pop": 103166,
    "lat": 40.0149856,
    "lon": -105.2705456,
    "capital": false
  },
  {
    "name": "West Palm Beach",
    "state": "FL",
    "pop": 102436,
    "lat": 26.7153424,
    "lon": -80.0533746,
    "capital": false
  },
  {
    "name": "Santa Maria",
    "state": "CA",
    "pop": 102216,
    "lat": 34.953033700000006,
    "lon": -120.43571909999999,
    "capital": false
  },
  {
    "name": "El Cajon",
    "state": "CA",
    "pop": 102211,
    "lat": 32.7947731,
    "lon": -116.96252690000001,
    "capital": false
  },
  {
    "name": "Davenport",
    "state": "IA",
    "pop": 102157,
    "lat": 41.5236437,
    "lon": -90.57763670000001,
    "capital": false
  },
  {
    "name": "Rialto",
    "state": "CA",
    "pop": 101910,
    "lat": 34.1064001,
    "lon": -117.37032350000001,
    "capital": false
  },
  {
    "name": "Las Cruces",
    "state": "NM",
    "pop": 101324,
    "lat": 32.3199396,
    "lon": -106.7636538,
    "capital": false
  },
  {
    "name": "San Mateo",
    "state": "CA",
    "pop": 101128,
    "lat": 37.562991700000005,
    "lon": -122.32552539999999,
    "capital": false
  },
  {
    "name": "Lewisville",
    "state": "TX",
    "pop": 101074,
    "lat": 33.046233,
    "lon": -96.994174,
    "capital": false
  },
  {
    "name": "South Bend",
    "state": "IN",
    "pop": 100886,
    "lat": 41.676354499999995,
    "lon": -86.25198979999999,
    "capital": false
  },
  {
    "name": "Lakeland",
    "state": "FL",
    "pop": 100710,
    "lat": 28.039465399999997,
    "lon": -81.9498042,
    "capital": false
  },
  {
    "name": "Erie",
    "state": "PA",
    "pop": 100671,
    "lat": 42.1292241,
    "lon": -80.085059,
    "capital": false
  },
  {
    "name": "Tyler",
    "state": "TX",
    "pop": 100223,
    "lat": 32.351260100000005,
    "lon": -95.3010624,
    "capital": false
  },
  {
    "name": "Pearland",
    "state": "TX",
    "pop": 100065,
    "lat": 29.5635666,
    "lon": -95.2860474,
    "capital": false
  },
  {
    "name": "College Station",
    "state": "TX",
    "pop": 100050,
    "lat": 30.627977,
    "lon": -96.3344068,
    "capital": false
  },
  {
    "name": "Kenosha",
    "state": "WI",
    "pop": 99889,
    "lat": 42.5847425,
    "lon": -87.8211854,
    "capital": false
  },
  {
    "name": "Sandy Springs",
    "state": "GA",
    "pop": 99770,
    "lat": 33.9304352,
    "lon": -84.3733147,
    "capital": false
  },
  {
    "name": "Clovis",
    "state": "CA",
    "pop": 99769,
    "lat": 36.8252277,
    "lon": -119.70291940000001,
    "capital": false
  },
  {
    "name": "Flint",
    "state": "MI",
    "pop": 99763,
    "lat": 43.012527399999996,
    "lon": -83.6874562,
    "capital": false
  },
  {
    "name": "Roanoke",
    "state": "VA",
    "pop": 98465,
    "lat": 37.270970399999996,
    "lon": -79.9414266,
    "capital": false
  },
  {
    "name": "Albany",
    "state": "NY",
    "pop": 98424,
    "lat": 42.65257929999999,
    "lon": -73.7562317,
    "capital": true
  },
  {
    "name": "Jurupa Valley",
    "state": "CA",
    "pop": 98030,
    "lat": 33.9971974,
    "lon": -117.48548020000001,
    "capital": false
  },
  {
    "name": "Compton",
    "state": "CA",
    "pop": 97877,
    "lat": 33.8958492,
    "lon": -118.2200712,
    "capital": false
  },
  {
    "name": "San Angelo",
    "state": "TX",
    "pop": 97492,
    "lat": 31.4637723,
    "lon": -100.4370375,
    "capital": false
  },
  {
    "name": "Hillsboro",
    "state": "OR",
    "pop": 97368,
    "lat": 45.5228939,
    "lon": -122.989827,
    "capital": false
  },
  {
    "name": "Lawton",
    "state": "OK",
    "pop": 97151,
    "lat": 34.6035669,
    "lon": -98.3959291,
    "capital": false
  },
  {
    "name": "Renton",
    "state": "WA",
    "pop": 97003,
    "lat": 47.4828776,
    "lon": -122.21706609999998,
    "capital": false
  },
  {
    "name": "Vista",
    "state": "CA",
    "pop": 96929,
    "lat": 33.2000368,
    "lon": -117.2425355,
    "capital": false
  },
  {
    "name": "Davie",
    "state": "FL",
    "pop": 96830,
    "lat": 26.076478299999998,
    "lon": -80.2521157,
    "capital": false
  },
  {
    "name": "Greeley",
    "state": "CO",
    "pop": 96539,
    "lat": 40.42331420000001,
    "lon": -104.7091322,
    "capital": false
  },
  {
    "name": "Mission Viejo",
    "state": "CA",
    "pop": 96346,
    "lat": 33.6000232,
    "lon": -117.67199529999999,
    "capital": false
  },
  {
    "name": "Portsmouth",
    "state": "VA",
    "pop": 96205,
    "lat": 36.835425799999996,
    "lon": -76.29827420000001,
    "capital": false
  },
  {
    "name": "Dearborn",
    "state": "MI",
    "pop": 95884,
    "lat": 42.3222599,
    "lon": -83.1763145,
    "capital": false
  },
  {
    "name": "South Gate",
    "state": "CA",
    "pop": 95677,
    "lat": 33.954737,
    "lon": -118.21201609999999,
    "capital": false
  },
  {
    "name": "Tuscaloosa",
    "state": "AL",
    "pop": 95334,
    "lat": 33.2098407,
    "lon": -87.5691735,
    "capital": false
  },
  {
    "name": "Livonia",
    "state": "MI",
    "pop": 95208,
    "lat": 42.36837,
    "lon": -83.3527097,
    "capital": false
  },
  {
    "name": "New Bedford",
    "state": "MA",
    "pop": 95078,
    "lat": 41.6362152,
    "lon": -70.934205,
    "capital": false
  },
  {
    "name": "Vacaville",
    "state": "CA",
    "pop": 94275,
    "lat": 38.3565773,
    "lon": -121.98774440000001,
    "capital": false
  },
  {
    "name": "Brockton",
    "state": "MA",
    "pop": 94089,
    "lat": 42.083433500000005,
    "lon": -71.0183787,
    "capital": false
  },
  {
    "name": "Roswell",
    "state": "GA",
    "pop": 94034,
    "lat": 34.0232431,
    "lon": -84.36155550000001,
    "capital": false
  },
  {
    "name": "Beaverton",
    "state": "OR",
    "pop": 93542,
    "lat": 45.487062,
    "lon": -122.8037102,
    "capital": false
  },
  {
    "name": "Quincy",
    "state": "MA",
    "pop": 93494,
    "lat": 42.25287720000001,
    "lon": -71.0022705,
    "capital": false
  },
  {
    "name": "Sparks",
    "state": "NV",
    "pop": 93282,
    "lat": 39.5349112,
    "lon": -119.7526886,
    "capital": false
  },
  {
    "name": "Yakima",
    "state": "WA",
    "pop": 93257,
    "lat": 46.6020711,
    "lon": -120.5058987,
    "capital": false
  },
  {
    "name": "Lee's Summit",
    "state": "MO",
    "pop": 93184,
    "lat": 38.9108408,
    "lon": -94.3821724,
    "capital": false
  },
  {
    "name": "Federal Way",
    "state": "WA",
    "pop": 92734,
    "lat": 47.3223221,
    "lon": -122.3126222,
    "capital": false
  },
  {
    "name": "Carson",
    "state": "CA",
    "pop": 92599,
    "lat": 33.8316745,
    "lon": -118.28169299999999,
    "capital": false
  },
  {
    "name": "Santa Monica",
    "state": "CA",
    "pop": 92472,
    "lat": 34.01945429999999,
    "lon": -118.4911912,
    "capital": false
  },
  {
    "name": "Hesperia",
    "state": "CA",
    "pop": 92147,
    "lat": 34.4263886,
    "lon": -117.3008784,
    "capital": false
  },
  {
    "name": "Allen",
    "state": "TX",
    "pop": 92020,
    "lat": 33.1031744,
    "lon": -96.6705503,
    "capital": false
  },
  {
    "name": "Rio Rancho",
    "state": "NM",
    "pop": 91956,
    "lat": 35.2327544,
    "lon": -106.66304369999999,
    "capital": false
  },
  {
    "name": "Yuma",
    "state": "AZ",
    "pop": 91923,
    "lat": 32.6926512,
    "lon": -114.62769159999999,
    "capital": false
  },
  {
    "name": "Westminster",
    "state": "CA",
    "pop": 91739,
    "lat": 33.7513419,
    "lon": -117.99399209999999,
    "capital": false
  },
  {
    "name": "Orem",
    "state": "UT",
    "pop": 91648,
    "lat": 40.2968979,
    "lon": -111.69464750000002,
    "capital": false
  },
  {
    "name": "Lynn",
    "state": "MA",
    "pop": 91589,
    "lat": 42.466763,
    "lon": -70.9494938,
    "capital": false
  },
  {
    "name": "Redding",
    "state": "CA",
    "pop": 91119,
    "lat": 40.5865396,
    "lon": -122.3916754,
    "capital": false
  },
  {
    "name": "Spokane Valley",
    "state": "WA",
    "pop": 91113,
    "lat": 47.6732281,
    "lon": -117.2393748,
    "capital": false
  },
  {
    "name": "Miami Beach",
    "state": "FL",
    "pop": 91026,
    "lat": 25.790654,
    "lon": -80.1300455,
    "capital": false
  },
  {
    "name": "League City",
    "state": "TX",
    "pop": 90983,
    "lat": 29.5074538,
    "lon": -95.0949303,
    "capital": false
  },
  {
    "name": "Lawrence",
    "state": "KS",
    "pop": 90811,
    "lat": 38.971668900000004,
    "lon": -95.23525009999999,
    "capital": false
  },
  {
    "name": "Santa Barbara",
    "state": "CA",
    "pop": 90412,
    "lat": 34.4208305,
    "lon": -119.69819009999999,
    "capital": false
  },
  {
    "name": "Plantation",
    "state": "FL",
    "pop": 90268,
    "lat": 26.1275862,
    "lon": -80.23310359999999,
    "capital": false
  },
  {
    "name": "Sandy",
    "state": "UT",
    "pop": 90231,
    "lat": 40.564978100000005,
    "lon": -111.8389726,
    "capital": false
  },
  {
    "name": "Sunrise",
    "state": "FL",
    "pop": 90116,
    "lat": 26.1669711,
    "lon": -80.25659499999999,
    "capital": false
  },
  {
    "name": "Macon",
    "state": "GA",
    "pop": 89981,
    "lat": 32.8406946,
    "lon": -83.6324022,
    "capital": false
  },
  {
    "name": "Longmont",
    "state": "CO",
    "pop": 89919,
    "lat": 40.167206799999995,
    "lon": -105.10192749999999,
    "capital": false
  },
  {
    "name": "Boca Raton",
    "state": "FL",
    "pop": 89407,
    "lat": 26.3683064,
    "lon": -80.1289321,
    "capital": false
  },
  {
    "name": "San Marcos",
    "state": "CA",
    "pop": 89387,
    "lat": 33.1433723,
    "lon": -117.1661449,
    "capital": false
  },
  {
    "name": "Greenville",
    "state": "NC",
    "pop": 89130,
    "lat": 35.612660999999996,
    "lon": -77.3663538,
    "capital": false
  },
  {
    "name": "Waukegan",
    "state": "IL",
    "pop": 88826,
    "lat": 42.3636331,
    "lon": -87.84479379999999,
    "capital": false
  },
  {
    "name": "Fall River",
    "state": "MA",
    "pop": 88697,
    "lat": 41.7014912,
    "lon": -71.1550451,
    "capital": false
  },
  {
    "name": "Chico",
    "state": "CA",
    "pop": 88077,
    "lat": 39.728494399999995,
    "lon": -121.8374777,
    "capital": false
  },
  {
    "name": "Newton",
    "state": "MA",
    "pop": 87971,
    "lat": 42.337041299999996,
    "lon": -71.2092214,
    "capital": false
  },
  {
    "name": "San Leandro",
    "state": "CA",
    "pop": 87965,
    "lat": 37.7249296,
    "lon": -122.1560768,
    "capital": false
  },
  {
    "name": "Reading",
    "state": "PA",
    "pop": 87893,
    "lat": 40.335648299999995,
    "lon": -75.9268747,
    "capital": false
  },
  {
    "name": "Norwalk",
    "state": "CT",
    "pop": 87776,
    "lat": 41.117744,
    "lon": -73.4081575,
    "capital": false
  },
  {
    "name": "Fort Smith",
    "state": "AR",
    "pop": 87650,
    "lat": 35.385924200000005,
    "lon": -94.39854749999999,
    "capital": false
  },
  {
    "name": "Newport Beach",
    "state": "CA",
    "pop": 87273,
    "lat": 33.6189101,
    "lon": -117.9289469,
    "capital": false
  },
  {
    "name": "Asheville",
    "state": "NC",
    "pop": 87236,
    "lat": 35.5950581,
    "lon": -82.5514869,
    "capital": false
  },
  {
    "name": "Nashua",
    "state": "NH",
    "pop": 87137,
    "lat": 42.7653662,
    "lon": -71.467566,
    "capital": false
  },
  {
    "name": "Edmond",
    "state": "OK",
    "pop": 87004,
    "lat": 35.6528323,
    "lon": -97.4780954,
    "capital": false
  },
  {
    "name": "Whittier",
    "state": "CA",
    "pop": 86635,
    "lat": 33.97917929999999,
    "lon": -118.032844,
    "capital": false
  },
  {
    "name": "Nampa",
    "state": "ID",
    "pop": 86518,
    "lat": 43.5407172,
    "lon": -116.5634624,
    "capital": false
  },
  {
    "name": "Bloomington",
    "state": "MN",
    "pop": 86319,
    "lat": 44.840798,
    "lon": -93.29827990000001,
    "capital": false
  },
  {
    "name": "Deltona",
    "state": "FL",
    "pop": 86290,
    "lat": 28.9005446,
    "lon": -81.2636738,
    "capital": false
  },
  {
    "name": "Hawthorne",
    "state": "CA",
    "pop": 86199,
    "lat": 33.9164032,
    "lon": -118.35257479999999,
    "capital": false
  },
  {
    "name": "Duluth",
    "state": "MN",
    "pop": 86128,
    "lat": 46.7866719,
    "lon": -92.10048520000001,
    "capital": false
  },
  {
    "name": "Carmel",
    "state": "IN",
    "pop": 85927,
    "lat": 39.978371,
    "lon": -86.1180435,
    "capital": false
  },
  {
    "name": "Suffolk",
    "state": "VA",
    "pop": 85728,
    "lat": 36.7282054,
    "lon": -76.5835621,
    "capital": false
  },
  {
    "name": "Clifton",
    "state": "NJ",
    "pop": 85390,
    "lat": 40.858432799999996,
    "lon": -74.16375529999999,
    "capital": false
  },
  {
    "name": "Citrus Heights",
    "state": "CA",
    "pop": 85285,
    "lat": 38.7071247,
    "lon": -121.2810611,
    "capital": false
  },
  {
    "name": "Livermore",
    "state": "CA",
    "pop": 85156,
    "lat": 37.6818745,
    "lon": -121.7680088,
    "capital": false
  },
  {
    "name": "Tracy",
    "state": "CA",
    "pop": 84691,
    "lat": 37.7396513,
    "lon": -121.42522269999999,
    "capital": false
  },
  {
    "name": "Alhambra",
    "state": "CA",
    "pop": 84577,
    "lat": 34.095287,
    "lon": -118.1270146,
    "capital": false
  },
  {
    "name": "Kirkland",
    "state": "WA",
    "pop": 84430,
    "lat": 47.6814875,
    "lon": -122.20873529999999,
    "capital": false
  },
  {
    "name": "Trenton",
    "state": "NJ",
    "pop": 84349,
    "lat": 40.2170534,
    "lon": -74.74293840000001,
    "capital": true
  },
  {
    "name": "Ogden",
    "state": "UT",
    "pop": 84249,
    "lat": 41.223,
    "lon": -111.9738304,
    "capital": false
  },
  {
    "name": "Hoover",
    "state": "AL",
    "pop": 84126,
    "lat": 33.405386699999994,
    "lon": -86.8113781,
    "capital": false
  },
  {
    "name": "Cicero",
    "state": "IL",
    "pop": 84103,
    "lat": 41.8455877,
    "lon": -87.7539448,
    "capital": false
  },
  {
    "name": "Fishers",
    "state": "IN",
    "pop": 83891,
    "lat": 39.95675479999999,
    "lon": -86.01335,
    "capital": false
  },
  {
    "name": "Sugar Land",
    "state": "TX",
    "pop": 83860,
    "lat": 29.6196787,
    "lon": -95.6349463,
    "capital": false
  },
  {
    "name": "Danbury",
    "state": "CT",
    "pop": 83684,
    "lat": 41.394816999999996,
    "lon": -73.45401109999999,
    "capital": false
  },
  {
    "name": "Meridian",
    "state": "ID",
    "pop": 83596,
    "lat": 43.61210870000001,
    "lon": -116.39151310000001,
    "capital": false
  },
  {
    "name": "Indio",
    "state": "CA",
    "pop": 83539,
    "lat": 33.7205771,
    "lon": -116.2155619,
    "capital": false
  },
  {
    "name": "Concord",
    "state": "NC",
    "pop": 83506,
    "lat": 35.4087517,
    "lon": -80.579511,
    "capital": false
  },
  {
    "name": "Menifee",
    "state": "CA",
    "pop": 83447,
    "lat": 33.6971468,
    "lon": -117.185294,
    "capital": false
  },
  {
    "name": "Champaign",
    "state": "IL",
    "pop": 83424,
    "lat": 40.116420399999996,
    "lon": -88.2433829,
    "capital": false
  },
  {
    "name": "Buena Park",
    "state": "CA",
    "pop": 82882,
    "lat": 33.867514299999996,
    "lon": -117.99811809999999,
    "capital": false
  },
  {
    "name": "Troy",
    "state": "MI",
    "pop": 82821,
    "lat": 42.6064095,
    "lon": -83.1497751,
    "capital": false
  },
  {
    "name": "O'Fallon",
    "state": "MO",
    "pop": 82809,
    "lat": 38.8106075,
    "lon": -90.6998477,
    "capital": false
  },
  {
    "name": "Johns Creek",
    "state": "GA",
    "pop": 82788,
    "lat": 34.0289259,
    "lon": -84.19857900000001,
    "capital": false
  },
  {
    "name": "Bellingham",
    "state": "WA",
    "pop": 82631,
    "lat": 48.74908,
    "lon": -122.4781473,
    "capital": false
  },
  {
    "name": "Westland",
    "state": "MI",
    "pop": 82578,
    "lat": 42.324203999999995,
    "lon": -83.400211,
    "capital": false
  },
  {
    "name": "Bloomington",
    "state": "IN",
    "pop": 82575,
    "lat": 39.165325,
    "lon": -86.5263857,
    "capital": false
  },
  {
    "name": "Sioux City",
    "state": "IA",
    "pop": 82459,
    "lat": 42.4999942,
    "lon": -96.4003069,
    "capital": false
  },
  {
    "name": "Warwick",
    "state": "RI",
    "pop": 81971,
    "lat": 41.700100899999995,
    "lon": -71.4161671,
    "capital": false
  },
  {
    "name": "Hemet",
    "state": "CA",
    "pop": 81750,
    "lat": 33.7475203,
    "lon": -116.97196840000001,
    "capital": false
  },
  {
    "name": "Longview",
    "state": "TX",
    "pop": 81443,
    "lat": 32.5007037,
    "lon": -94.74048909999999,
    "capital": false
  },
  {
    "name": "Farmington Hills",
    "state": "MI",
    "pop": 81295,
    "lat": 42.4989936,
    "lon": -83.3677168,
    "capital": false
  },
  {
    "name": "Bend",
    "state": "OR",
    "pop": 81236,
    "lat": 44.058172799999994,
    "lon": -121.31530959999999,
    "capital": false
  },
  {
    "name": "Lakewood",
    "state": "CA",
    "pop": 81121,
    "lat": 33.853626899999995,
    "lon": -118.13395630000001,
    "capital": false
  },
  {
    "name": "Merced",
    "state": "CA",
    "pop": 81102,
    "lat": 37.3021632,
    "lon": -120.48296770000002,
    "capital": false
  },
  {
    "name": "Mission",
    "state": "TX",
    "pop": 81050,
    "lat": 26.2159066,
    "lon": -98.3252932,
    "capital": false
  },
  {
    "name": "Chino",
    "state": "CA",
    "pop": 80988,
    "lat": 34.0122346,
    "lon": -117.68894399999999,
    "capital": false
  },
  {
    "name": "Redwood City",
    "state": "CA",
    "pop": 80872,
    "lat": 37.4852152,
    "lon": -122.2363548,
    "capital": false
  },
  {
    "name": "Edinburg",
    "state": "TX",
    "pop": 80836,
    "lat": 26.3017374,
    "lon": -98.1633432,
    "capital": false
  },
  {
    "name": "Cranston",
    "state": "RI",
    "pop": 80566,
    "lat": 41.7798226,
    "lon": -71.4372796,
    "capital": false
  },
  {
    "name": "Parma",
    "state": "OH",
    "pop": 80429,
    "lat": 41.404774200000006,
    "lon": -81.72290859999998,
    "capital": false
  },
  {
    "name": "New Rochelle",
    "state": "NY",
    "pop": 79446,
    "lat": 40.9114882,
    "lon": -73.78235490000002,
    "capital": false
  },
  {
    "name": "Lake Forest",
    "state": "CA",
    "pop": 79312,
    "lat": 33.6469661,
    "lon": -117.689218,
    "capital": false
  },
  {
    "name": "Napa",
    "state": "CA",
    "pop": 79068,
    "lat": 38.2975381,
    "lon": -122.28686499999999,
    "capital": false
  },
  {
    "name": "Hammond",
    "state": "IN",
    "pop": 78967,
    "lat": 41.583368799999995,
    "lon": -87.5000412,
    "capital": false
  },
  {
    "name": "Fayetteville",
    "state": "AR",
    "pop": 78960,
    "lat": 36.0625795,
    "lon": -94.1574263,
    "capital": false
  },
  {
    "name": "Bloomington",
    "state": "IL",
    "pop": 78902,
    "lat": 40.4842027,
    "lon": -88.9936873,
    "capital": false
  },
  {
    "name": "Avondale",
    "state": "AZ",
    "pop": 78822,
    "lat": 33.4355977,
    "lon": -112.3496021,
    "capital": false
  },
  {
    "name": "Somerville",
    "state": "MA",
    "pop": 78804,
    "lat": 42.3875968,
    "lon": -71.0994968,
    "capital": false
  },
  {
    "name": "Palm Coast",
    "state": "FL",
    "pop": 78740,
    "lat": 29.584452399999996,
    "lon": -81.2078699,
    "capital": false
  },
  {
    "name": "Bryan",
    "state": "TX",
    "pop": 78709,
    "lat": 30.674364299999997,
    "lon": -96.3699632,
    "capital": false
  },
  {
    "name": "Gary",
    "state": "IN",
    "pop": 78450,
    "lat": 41.5933696,
    "lon": -87.3464271,
    "capital": false
  },
  {
    "name": "Largo",
    "state": "FL",
    "pop": 78409,
    "lat": 27.909466499999997,
    "lon": -82.7873244,
    "capital": false
  },
  {
    "name": "Brooklyn Park",
    "state": "MN",
    "pop": 78373,
    "lat": 45.0941315,
    "lon": -93.3563405,
    "capital": false
  },
  {
    "name": "Tustin",
    "state": "CA",
    "pop": 78327,
    "lat": 33.7458511,
    "lon": -117.82616599999999,
    "capital": false
  },
  {
    "name": "Racine",
    "state": "WI",
    "pop": 78199,
    "lat": 42.7261309,
    "lon": -87.78285229999999,
    "capital": false
  },
  {
    "name": "Deerfield Beach",
    "state": "FL",
    "pop": 78041,
    "lat": 26.318412300000002,
    "lon": -80.0997657,
    "capital": false
  },
  {
    "name": "Lynchburg",
    "state": "VA",
    "pop": 78014,
    "lat": 37.4137536,
    "lon": -79.1422464,
    "capital": false
  },
  {
    "name": "Mountain View",
    "state": "CA",
    "pop": 77846,
    "lat": 37.3860517,
    "lon": -122.08385109999999,
    "capital": false
  },
  {
    "name": "Medford",
    "state": "OR",
    "pop": 77677,
    "lat": 42.3265152,
    "lon": -122.8755949,
    "capital": false
  },
  {
    "name": "Lawrence",
    "state": "MA",
    "pop": 77657,
    "lat": 42.7070354,
    "lon": -71.1631137,
    "capital": false
  },
  {
    "name": "Bellflower",
    "state": "CA",
    "pop": 77593,
    "lat": 33.881681799999996,
    "lon": -118.1170117,
    "capital": false
  },
  {
    "name": "Melbourne",
    "state": "FL",
    "pop": 77508,
    "lat": 28.0836269,
    "lon": -80.6081089,
    "capital": false
  },
  {
    "name": "St. Joseph",
    "state": "MO",
    "pop": 77147,
    "lat": 39.767457799999995,
    "lon": -94.846681,
    "capital": false
  },
  {
    "name": "Camden",
    "state": "NJ",
    "pop": 76903,
    "lat": 39.9259463,
    "lon": -75.1196199,
    "capital": false
  },
  {
    "name": "St. George",
    "state": "UT",
    "pop": 76817,
    "lat": 37.0965278,
    "lon": -113.5684164,
    "capital": false
  },
  {
    "name": "Kennewick",
    "state": "WA",
    "pop": 76762,
    "lat": 46.2112458,
    "lon": -119.1372338,
    "capital": false
  },
  {
    "name": "Baldwin Park",
    "state": "CA",
    "pop": 76635,
    "lat": 34.0852868,
    "lon": -117.96089779999998,
    "capital": false
  },
  {
    "name": "Chino Hills",
    "state": "CA",
    "pop": 76572,
    "lat": 33.989818799999995,
    "lon": -117.7325848,
    "capital": false
  },
  {
    "name": "Alameda",
    "state": "CA",
    "pop": 76419,
    "lat": 37.7652065,
    "lon": -122.2416355,
    "capital": false
  },
  {
    "name": "Albany",
    "state": "GA",
    "pop": 76185,
    "lat": 31.578507399999996,
    "lon": -84.155741,
    "capital": false
  },
  {
    "name": "Arlington Heights",
    "state": "IL",
    "pop": 75994,
    "lat": 42.0883603,
    "lon": -87.9806265,
    "capital": false
  },
  {
    "name": "Scranton",
    "state": "PA",
    "pop": 75806,
    "lat": 41.408969,
    "lon": -75.66241219999999,
    "capital": false
  },
  {
    "name": "Evanston",
    "state": "IL",
    "pop": 75570,
    "lat": 42.0450722,
    "lon": -87.6876969,
    "capital": false
  },
  {
    "name": "Kalamazoo",
    "state": "MI",
    "pop": 75548,
    "lat": 42.291706899999994,
    "lon": -85.5872286,
    "capital": false
  },
  {
    "name": "Baytown",
    "state": "TX",
    "pop": 75418,
    "lat": 29.735504700000003,
    "lon": -94.97742740000001,
    "capital": false
  },
  {
    "name": "Upland",
    "state": "CA",
    "pop": 75413,
    "lat": 34.09751,
    "lon": -117.64838759999999,
    "capital": false
  },
  {
    "name": "Springdale",
    "state": "AR",
    "pop": 75229,
    "lat": 36.18674420000001,
    "lon": -94.1288141,
    "capital": false
  },
  {
    "name": "Bethlehem",
    "state": "PA",
    "pop": 75018,
    "lat": 40.6259316,
    "lon": -75.3704579,
    "capital": false
  },
  {
    "name": "Schaumburg",
    "state": "IL",
    "pop": 74907,
    "lat": 42.0333607,
    "lon": -88.0834059,
    "capital": false
  },
  {
    "name": "Mount Pleasant",
    "state": "SC",
    "pop": 74885,
    "lat": 32.8323225,
    "lon": -79.82842579999999,
    "capital": false
  },
  {
    "name": "Auburn",
    "state": "WA",
    "pop": 74860,
    "lat": 47.307322799999994,
    "lon": -122.22845320000002,
    "capital": false
  },
  {
    "name": "Decatur",
    "state": "IL",
    "pop": 74710,
    "lat": 39.84031470000001,
    "lon": -88.9548001,
    "capital": false
  },
  {
    "name": "San Ramon",
    "state": "CA",
    "pop": 74513,
    "lat": 37.7799273,
    "lon": -121.9780153,
    "capital": false
  },
  {
    "name": "Pleasanton",
    "state": "CA",
    "pop": 74110,
    "lat": 37.6624312,
    "lon": -121.8746789,
    "capital": false
  },
  {
    "name": "Wyoming",
    "state": "MI",
    "pop": 74100,
    "lat": 42.9133602,
    "lon": -85.7053085,
    "capital": false
  },
  {
    "name": "Lake Charles",
    "state": "LA",
    "pop": 74024,
    "lat": 30.226594899999995,
    "lon": -93.21737579999999,
    "capital": false
  },
  {
    "name": "Plymouth",
    "state": "MN",
    "pop": 73987,
    "lat": 45.01051939999999,
    "lon": -93.4555093,
    "capital": false
  },
  {
    "name": "Bolingbrook",
    "state": "IL",
    "pop": 73936,
    "lat": 41.6986416,
    "lon": -88.0683955,
    "capital": false
  },
  {
    "name": "Pharr",
    "state": "TX",
    "pop": 73790,
    "lat": 26.1947962,
    "lon": -98.1836216,
    "capital": false
  },
  {
    "name": "Appleton",
    "state": "WI",
    "pop": 73596,
    "lat": 44.2619309,
    "lon": -88.4153847,
    "capital": false
  },
  {
    "name": "Gastonia",
    "state": "NC",
    "pop": 73209,
    "lat": 35.262082,
    "lon": -81.1873005,
    "capital": false
  },
  {
    "name": "Folsom",
    "state": "CA",
    "pop": 73098,
    "lat": 38.6779591,
    "lon": -121.17605829999998,
    "capital": false
  },
  {
    "name": "Southfield",
    "state": "MI",
    "pop": 73006,
    "lat": 42.473368799999996,
    "lon": -83.2218731,
    "capital": false
  },
  {
    "name": "Rochester Hills",
    "state": "MI",
    "pop": 72952,
    "lat": 42.6583661,
    "lon": -83.14993220000001,
    "capital": false
  },
  {
    "name": "New Britain",
    "state": "CT",
    "pop": 72939,
    "lat": 41.6612104,
    "lon": -72.77954190000001,
    "capital": false
  },
  {
    "name": "Goodyear",
    "state": "AZ",
    "pop": 72864,
    "lat": 33.4353394,
    "lon": -112.3576567,
    "capital": false
  },
  {
    "name": "Canton",
    "state": "OH",
    "pop": 72535,
    "lat": 40.7989473,
    "lon": -81.378447,
    "capital": false
  },
  {
    "name": "Warner Robins",
    "state": "GA",
    "pop": 72531,
    "lat": 32.6130007,
    "lon": -83.624201,
    "capital": false
  },
  {
    "name": "Union City",
    "state": "CA",
    "pop": 72528,
    "lat": 37.59339179999999,
    "lon": -122.0438298,
    "capital": false
  },
  {
    "name": "Perris",
    "state": "CA",
    "pop": 72326,
    "lat": 33.7825194,
    "lon": -117.22864779999999,
    "capital": false
  },
  {
    "name": "Manteca",
    "state": "CA",
    "pop": 71948,
    "lat": 37.797427299999995,
    "lon": -121.21605259999998,
    "capital": false
  },
  {
    "name": "Iowa City",
    "state": "IA",
    "pop": 71591,
    "lat": 41.6611277,
    "lon": -91.5301683,
    "capital": false
  },
  {
    "name": "Jonesboro",
    "state": "AR",
    "pop": 71551,
    "lat": 35.8422967,
    "lon": -90.704279,
    "capital": false
  },
  {
    "name": "Wilmington",
    "state": "DE",
    "pop": 71525,
    "lat": 39.7390721,
    "lon": -75.5397878,
    "capital": false
  },
  {
    "name": "Lynwood",
    "state": "CA",
    "pop": 71371,
    "lat": 33.930293,
    "lon": -118.21146029999998,
    "capital": false
  },
  {
    "name": "Loveland",
    "state": "CO",
    "pop": 71334,
    "lat": 40.397761200000005,
    "lon": -105.0749801,
    "capital": false
  },
  {
    "name": "Pawtucket",
    "state": "RI",
    "pop": 71172,
    "lat": 41.878710999999996,
    "lon": -71.38255579999999,
    "capital": false
  },
  {
    "name": "Boynton Beach",
    "state": "FL",
    "pop": 71097,
    "lat": 26.531786600000004,
    "lon": -80.0905465,
    "capital": false
  },
  {
    "name": "Waukesha",
    "state": "WI",
    "pop": 71016,
    "lat": 43.0116784,
    "lon": -88.2314813,
    "capital": false
  },
  {
    "name": "Gulfport",
    "state": "MS",
    "pop": 71012,
    "lat": 30.367419800000004,
    "lon": -89.0928155,
    "capital": false
  },
  {
    "name": "Apple Valley",
    "state": "CA",
    "pop": 70924,
    "lat": 34.5008311,
    "lon": -117.18587590000001,
    "capital": false
  },
  {
    "name": "Passaic",
    "state": "NJ",
    "pop": 70868,
    "lat": 40.8567662,
    "lon": -74.12847640000001,
    "capital": false
  },
  {
    "name": "Rapid City",
    "state": "SD",
    "pop": 70812,
    "lat": 44.0805434,
    "lon": -103.2310149,
    "capital": false
  },
  {
    "name": "Layton",
    "state": "UT",
    "pop": 70790,
    "lat": 41.0602216,
    "lon": -111.9710529,
    "capital": false
  },
  {
    "name": "Lafayette",
    "state": "IN",
    "pop": 70373,
    "lat": 40.4167022,
    "lon": -86.8752869,
    "capital": false
  },
  {
    "name": "Turlock",
    "state": "CA",
    "pop": 70365,
    "lat": 37.494656799999994,
    "lon": -120.84659409999999,
    "capital": false
  },
  {
    "name": "Muncie",
    "state": "IN",
    "pop": 70316,
    "lat": 40.1933767,
    "lon": -85.3863599,
    "capital": false
  },
  {
    "name": "Temple",
    "state": "TX",
    "pop": 70190,
    "lat": 31.0982344,
    "lon": -97.342782,
    "capital": false
  },
  {
    "name": "Missouri City",
    "state": "TX",
    "pop": 70185,
    "lat": 29.6185669,
    "lon": -95.5377215,
    "capital": false
  },
  {
    "name": "Redlands",
    "state": "CA",
    "pop": 69999,
    "lat": 34.055569299999995,
    "lon": -117.1825381,
    "capital": false
  },
  {
    "name": "Santa Fe",
    "state": "NM",
    "pop": 69976,
    "lat": 35.686975200000006,
    "lon": -105.937799,
    "capital": true
  },
  {
    "name": "Lauderhill",
    "state": "FL",
    "pop": 69813,
    "lat": 26.1403635,
    "lon": -80.2133808,
    "capital": false
  },
  {
    "name": "Milpitas",
    "state": "CA",
    "pop": 69783,
    "lat": 37.4323341,
    "lon": -121.8995741,
    "capital": false
  },
  {
    "name": "Palatine",
    "state": "IL",
    "pop": 69350,
    "lat": 42.1103041,
    "lon": -88.03424,
    "capital": false
  },
  {
    "name": "Missoula",
    "state": "MT",
    "pop": 69122,
    "lat": 46.8787176,
    "lon": -113.99658600000001,
    "capital": false
  },
  {
    "name": "Rock Hill",
    "state": "SC",
    "pop": 69103,
    "lat": 34.9248667,
    "lon": -81.02507840000001,
    "capital": false
  },
  {
    "name": "Jacksonville",
    "state": "NC",
    "pop": 69079,
    "lat": 34.7540524,
    "lon": -77.43024140000001,
    "capital": false
  },
  {
    "name": "Franklin",
    "state": "TN",
    "pop": 68886,
    "lat": 35.9250637,
    "lon": -86.86888990000001,
    "capital": false
  },
  {
    "name": "Flagstaff",
    "state": "AZ",
    "pop": 68667,
    "lat": 35.1982836,
    "lon": -111.651302,
    "capital": false
  },
  {
    "name": "Flower Mound",
    "state": "TX",
    "pop": 68609,
    "lat": 33.0145673,
    "lon": -97.0969552,
    "capital": false
  },
  {
    "name": "Weston",
    "state": "FL",
    "pop": 68388,
    "lat": 26.100365399999998,
    "lon": -80.3997748,
    "capital": false
  },
  {
    "name": "Waterloo",
    "state": "IA",
    "pop": 68366,
    "lat": 42.492785999999995,
    "lon": -92.3425775,
    "capital": false
  },
  {
    "name": "Union City",
    "state": "NJ",
    "pop": 68247,
    "lat": 40.697589799999996,
    "lon": -74.2631635,
    "capital": false
  },
  {
    "name": "Mount Vernon",
    "state": "NY",
    "pop": 68224,
    "lat": 40.9125992,
    "lon": -73.8370786,
    "capital": false
  },
  {
    "name": "Fort Myers",
    "state": "FL",
    "pop": 68190,
    "lat": 26.640628000000003,
    "lon": -81.87230840000001,
    "capital": false
  },
  {
    "name": "Dothan",
    "state": "AL",
    "pop": 68001,
    "lat": 31.223231300000002,
    "lon": -85.39048879999999,
    "capital": false
  },
  {
    "name": "Rancho Cordova",
    "state": "CA",
    "pop": 67911,
    "lat": 38.5890723,
    "lon": -121.302728,
    "capital": false
  },
  {
    "name": "Redondo Beach",
    "state": "CA",
    "pop": 67815,
    "lat": 33.8491816,
    "lon": -118.3884078,
    "capital": false
  },
  {
    "name": "Jackson",
    "state": "TN",
    "pop": 67685,
    "lat": 35.6145169,
    "lon": -88.8139469,
    "capital": false
  },
  {
    "name": "Pasco",
    "state": "WA",
    "pop": 67599,
    "lat": 46.239579299999995,
    "lon": -119.10056570000002,
    "capital": false
  },
  {
    "name": "St. Charles",
    "state": "MO",
    "pop": 67569,
    "lat": 38.7881062,
    "lon": -90.4974359,
    "capital": false
  },
  {
    "name": "Eau Claire",
    "state": "WI",
    "pop": 67545,
    "lat": 44.811349,
    "lon": -91.4984941,
    "capital": false
  },
  {
    "name": "North Richland Hills",
    "state": "TX",
    "pop": 67317,
    "lat": 32.8342952,
    "lon": -97.22890290000001,
    "capital": false
  },
  {
    "name": "Bismarck",
    "state": "ND",
    "pop": 67034,
    "lat": 46.808326799999996,
    "lon": -100.7837392,
    "capital": true
  },
  {
    "name": "Yorba Linda",
    "state": "CA",
    "pop": 67032,
    "lat": 33.888625899999994,
    "lon": -117.8131125,
    "capital": false
  },
  {
    "name": "Kenner",
    "state": "LA",
    "pop": 66975,
    "lat": 29.9940924,
    "lon": -90.2417434,
    "capital": false
  },
  {
    "name": "Walnut Creek",
    "state": "CA",
    "pop": 66900,
    "lat": 37.9100783,
    "lon": -122.06518190000001,
    "capital": false
  },
  {
    "name": "Frederick",
    "state": "MD",
    "pop": 66893,
    "lat": 39.414268799999995,
    "lon": -77.41054090000002,
    "capital": false
  },
  {
    "name": "Oshkosh",
    "state": "WI",
    "pop": 66778,
    "lat": 44.024706200000004,
    "lon": -88.5426136,
    "capital": false
  },
  {
    "name": "Pittsburg",
    "state": "CA",
    "pop": 66695,
    "lat": 38.027976200000005,
    "lon": -121.88468059999998,
    "capital": false
  },
  {
    "name": "Palo Alto",
    "state": "CA",
    "pop": 66642,
    "lat": 37.441883399999995,
    "lon": -122.14301950000001,
    "capital": false
  },
  {
    "name": "Bossier City",
    "state": "LA",
    "pop": 66333,
    "lat": 32.5159852,
    "lon": -93.7321228,
    "capital": false
  },
  {
    "name": "Portland",
    "state": "ME",
    "pop": 66318,
    "lat": 43.661471,
    "lon": -70.2553259,
    "capital": false
  },
  {
    "name": "St. Cloud",
    "state": "MN",
    "pop": 66297,
    "lat": 45.5579451,
    "lon": -94.1632404,
    "capital": false
  },
  {
    "name": "Davis",
    "state": "CA",
    "pop": 66205,
    "lat": 38.5449065,
    "lon": -121.74051670000001,
    "capital": false
  },
  {
    "name": "South San Francisco",
    "state": "CA",
    "pop": 66174,
    "lat": 37.654656,
    "lon": -122.40774979999999,
    "capital": false
  },
  {
    "name": "Camarillo",
    "state": "CA",
    "pop": 66086,
    "lat": 34.216393700000005,
    "lon": -119.0376023,
    "capital": false
  },
  {
    "name": "North Little Rock",
    "state": "AR",
    "pop": 66075,
    "lat": 34.769535999999995,
    "lon": -92.2670941,
    "capital": false
  },
  {
    "name": "Schenectady",
    "state": "NY",
    "pop": 65902,
    "lat": 42.8142432,
    "lon": -73.93956870000001,
    "capital": false
  },
  {
    "name": "Gaithersburg",
    "state": "MD",
    "pop": 65690,
    "lat": 39.143440600000005,
    "lon": -77.2013705,
    "capital": false
  },
  {
    "name": "Harlingen",
    "state": "TX",
    "pop": 65665,
    "lat": 26.190630600000002,
    "lon": -97.69610259999999,
    "capital": false
  },
  {
    "name": "Woodbury",
    "state": "MN",
    "pop": 65656,
    "lat": 44.923855200000006,
    "lon": -92.9593797,
    "capital": false
  },
  {
    "name": "Eagan",
    "state": "MN",
    "pop": 65453,
    "lat": 44.804132200000005,
    "lon": -93.1668858,
    "capital": false
  },
  {
    "name": "Yuba City",
    "state": "CA",
    "pop": 65416,
    "lat": 39.1404477,
    "lon": -121.6169108,
    "capital": false
  },
  {
    "name": "Maple Grove",
    "state": "MN",
    "pop": 65415,
    "lat": 45.072464200000006,
    "lon": -93.4557877,
    "capital": false
  },
  {
    "name": "Youngstown",
    "state": "OH",
    "pop": 65184,
    "lat": 41.0997803,
    "lon": -80.6495194,
    "capital": false
  },
  {
    "name": "Skokie",
    "state": "IL",
    "pop": 65176,
    "lat": 42.0324025,
    "lon": -87.7416246,
    "capital": false
  },
  {
    "name": "Kissimmee",
    "state": "FL",
    "pop": 65173,
    "lat": 28.291955699999995,
    "lon": -81.40757099999999,
    "capital": false
  },
  {
    "name": "Johnson City",
    "state": "TN",
    "pop": 65123,
    "lat": 36.3134397,
    "lon": -82.35347270000001,
    "capital": false
  },
  {
    "name": "Victoria",
    "state": "TX",
    "pop": 65098,
    "lat": 28.805267399999998,
    "lon": -97.00359820000001,
    "capital": false
  },
  {
    "name": "San Clemente",
    "state": "CA",
    "pop": 65040,
    "lat": 33.4269728,
    "lon": -117.6119925,
    "capital": false
  },
  {
    "name": "Bayonne",
    "state": "NJ",
    "pop": 65028,
    "lat": 40.6687141,
    "lon": -74.11430909999999,
    "capital": false
  },
  {
    "name": "Laguna Niguel",
    "state": "CA",
    "pop": 64652,
    "lat": 33.5225261,
    "lon": -117.70755259999999,
    "capital": false
  },
  {
    "name": "East Orange",
    "state": "NJ",
    "pop": 64544,
    "lat": 40.767323,
    "lon": -74.20486770000001,
    "capital": false
  },
  {
    "name": "Shawnee",
    "state": "KS",
    "pop": 64323,
    "lat": 39.0228485,
    "lon": -94.7151865,
    "capital": false
  },
  {
    "name": "Homestead",
    "state": "FL",
    "pop": 64079,
    "lat": 25.468722399999997,
    "lon": -80.4775569,
    "capital": false
  },
  {
    "name": "Delray Beach",
    "state": "FL",
    "pop": 64072,
    "lat": 26.4614625,
    "lon": -80.07282009999999,
    "capital": false
  },
  {
    "name": "Rockville",
    "state": "MD",
    "pop": 64072,
    "lat": 39.0839973,
    "lon": -77.1527578,
    "capital": false
  },
  {
    "name": "Janesville",
    "state": "WI",
    "pop": 63820,
    "lat": 42.6827885,
    "lon": -89.01872220000001,
    "capital": false
  },
  {
    "name": "Conway",
    "state": "AR",
    "pop": 63816,
    "lat": 35.0886963,
    "lon": -92.44210109999999,
    "capital": false
  },
  {
    "name": "Pico Rivera",
    "state": "CA",
    "pop": 63771,
    "lat": 33.9830688,
    "lon": -118.09673500000001,
    "capital": false
  },
  {
    "name": "Lorain",
    "state": "OH",
    "pop": 63710,
    "lat": 41.452819,
    "lon": -82.18237459999999,
    "capital": false
  },
  {
    "name": "Montebello",
    "state": "CA",
    "pop": 63495,
    "lat": 34.0165053,
    "lon": -118.11375349999999,
    "capital": false
  },
  {
    "name": "Lodi",
    "state": "CA",
    "pop": 63338,
    "lat": 38.1341477,
    "lon": -121.27221940000001,
    "capital": false
  },
  {
    "name": "New Braunfels",
    "state": "TX",
    "pop": 63279,
    "lat": 29.7030024,
    "lon": -98.1244531,
    "capital": false
  },
  {
    "name": "Marysville",
    "state": "WA",
    "pop": 63269,
    "lat": 48.0517637,
    "lon": -122.1770818,
    "capital": false
  },
  {
    "name": "Tamarac",
    "state": "FL",
    "pop": 63155,
    "lat": 26.2128609,
    "lon": -80.2497707,
    "capital": false
  },
  {
    "name": "Madera",
    "state": "CA",
    "pop": 63105,
    "lat": 36.961335600000005,
    "lon": -120.0607176,
    "capital": false
  },
  {
    "name": "Conroe",
    "state": "TX",
    "pop": 63032,
    "lat": 30.311876899999998,
    "lon": -95.4560512,
    "capital": false
  },
  {
    "name": "Santa Cruz",
    "state": "CA",
    "pop": 62864,
    "lat": 36.9741171,
    "lon": -122.0307963,
    "capital": false
  },
  {
    "name": "Eden Prairie",
    "state": "MN",
    "pop": 62603,
    "lat": 44.8546856,
    "lon": -93.470786,
    "capital": false
  },
  {
    "name": "Cheyenne",
    "state": "WY",
    "pop": 62448,
    "lat": 41.1399814,
    "lon": -104.8202462,
    "capital": true
  },
  {
    "name": "Daytona Beach",
    "state": "FL",
    "pop": 62316,
    "lat": 29.2108147,
    "lon": -81.02283309999999,
    "capital": false
  },
  {
    "name": "Alpharetta",
    "state": "GA",
    "pop": 62298,
    "lat": 34.07537620000001,
    "lon": -84.2940899,
    "capital": false
  },
  {
    "name": "Hamilton",
    "state": "OH",
    "pop": 62258,
    "lat": 39.3995008,
    "lon": -84.5613355,
    "capital": false
  },
  {
    "name": "Waltham",
    "state": "MA",
    "pop": 62227,
    "lat": 42.376485200000005,
    "lon": -71.2356113,
    "capital": false
  },
  {
    "name": "Coon Rapids",
    "state": "MN",
    "pop": 62103,
    "lat": 45.1732394,
    "lon": -93.30300629999999,
    "capital": false
  },
  {
    "name": "Haverhill",
    "state": "MA",
    "pop": 62088,
    "lat": 42.7762015,
    "lon": -71.0772796,
    "capital": false
  },
  {
    "name": "Council Bluffs",
    "state": "IA",
    "pop": 61969,
    "lat": 41.2619444,
    "lon": -95.8608333,
    "capital": false
  },
  {
    "name": "Taylor",
    "state": "MI",
    "pop": 61817,
    "lat": 42.240871999999996,
    "lon": -83.2696509,
    "capital": false
  },
  {
    "name": "Utica",
    "state": "NY",
    "pop": 61808,
    "lat": 43.100903,
    "lon": -75.232664,
    "capital": false
  },
  {
    "name": "Ames",
    "state": "IA",
    "pop": 61792,
    "lat": 42.034721999999995,
    "lon": -93.62,
    "capital": false
  },
  {
    "name": "La Habra",
    "state": "CA",
    "pop": 61653,
    "lat": 33.9319578,
    "lon": -117.94617340000002,
    "capital": false
  },
  {
    "name": "Encinitas",
    "state": "CA",
    "pop": 61588,
    "lat": 33.0369867,
    "lon": -117.2919818,
    "capital": false
  },
  {
    "name": "Bowling Green",
    "state": "KY",
    "pop": 61488,
    "lat": 36.9685219,
    "lon": -86.48080429999999,
    "capital": false
  },
  {
    "name": "Burnsville",
    "state": "MN",
    "pop": 61434,
    "lat": 44.7677424,
    "lon": -93.27772259999999,
    "capital": false
  },
  {
    "name": "Greenville",
    "state": "SC",
    "pop": 61397,
    "lat": 34.8526176,
    "lon": -82.3940104,
    "capital": false
  },
  {
    "name": "West Des Moines",
    "state": "IA",
    "pop": 61255,
    "lat": 41.5772115,
    "lon": -93.711332,
    "capital": false
  },
  {
    "name": "Cedar Park",
    "state": "TX",
    "pop": 61238,
    "lat": 30.505197999999996,
    "lon": -97.82028879999999,
    "capital": false
  },
  {
    "name": "Tulare",
    "state": "CA",
    "pop": 61170,
    "lat": 36.20772879999999,
    "lon": -119.3473379,
    "capital": false
  },
  {
    "name": "Monterey Park",
    "state": "CA",
    "pop": 61085,
    "lat": 34.0625106,
    "lon": -118.1228476,
    "capital": false
  },
  {
    "name": "Vineland",
    "state": "NJ",
    "pop": 61050,
    "lat": 39.4863773,
    "lon": -75.0259637,
    "capital": false
  },
  {
    "name": "Terre Haute",
    "state": "IN",
    "pop": 61025,
    "lat": 39.4667034,
    "lon": -87.4139092,
    "capital": false
  },
  {
    "name": "North Miami",
    "state": "FL",
    "pop": 61007,
    "lat": 25.890094899999998,
    "lon": -80.18671379999999,
    "capital": false
  },
  {
    "name": "Mansfield",
    "state": "TX",
    "pop": 60872,
    "lat": 32.5631924,
    "lon": -97.1416768,
    "capital": false
  },
  {
    "name": "West Allis",
    "state": "WI",
    "pop": 60697,
    "lat": 43.0166806,
    "lon": -88.0070315,
    "capital": false
  },
  {
    "name": "Bristol",
    "state": "CT",
    "pop": 60568,
    "lat": 41.6717648,
    "lon": -72.9492703,
    "capital": false
  },
  {
    "name": "Taylorsville",
    "state": "UT",
    "pop": 60519,
    "lat": 40.667724799999995,
    "lon": -111.93882579999999,
    "capital": false
  },
  {
    "name": "Malden",
    "state": "MA",
    "pop": 60509,
    "lat": 42.4250964,
    "lon": -71.066163,
    "capital": false
  },
  {
    "name": "Meriden",
    "state": "CT",
    "pop": 60456,
    "lat": 41.5381535,
    "lon": -72.8070435,
    "capital": false
  },
  {
    "name": "Blaine",
    "state": "MN",
    "pop": 60407,
    "lat": 45.1607987,
    "lon": -93.2349489,
    "capital": false
  },
  {
    "name": "Wellington",
    "state": "FL",
    "pop": 60202,
    "lat": 26.6617635,
    "lon": -80.2683571,
    "capital": false
  },
  {
    "name": "Cupertino",
    "state": "CA",
    "pop": 60189,
    "lat": 37.322997799999996,
    "lon": -122.03218229999999,
    "capital": false
  },
  {
    "name": "Springfield",
    "state": "OR",
    "pop": 60177,
    "lat": 44.0462362,
    "lon": -123.02202890000001,
    "capital": false
  },
  {
    "name": "Rogers",
    "state": "AR",
    "pop": 60112,
    "lat": 36.3320196,
    "lon": -94.1185366,
    "capital": false
  },
  {
    "name": "St. Clair Shores",
    "state": "MI",
    "pop": 60070,
    "lat": 42.4974085,
    "lon": -82.8963604,
    "capital": false
  },
  {
    "name": "Gardena",
    "state": "CA",
    "pop": 59957,
    "lat": 33.8883487,
    "lon": -118.30896240000001,
    "capital": false
  },
  {
    "name": "Pontiac",
    "state": "MI",
    "pop": 59887,
    "lat": 42.6389216,
    "lon": -83.2910468,
    "capital": false
  },
  {
    "name": "National City",
    "state": "CA",
    "pop": 59834,
    "lat": 32.6781085,
    "lon": -117.0991967,
    "capital": false
  },
  {
    "name": "Grand Junction",
    "state": "CO",
    "pop": 59778,
    "lat": 39.0638705,
    "lon": -108.5506486,
    "capital": false
  },
  {
    "name": "Rocklin",
    "state": "CA",
    "pop": 59738,
    "lat": 38.7907339,
    "lon": -121.2357828,
    "capital": false
  },
  {
    "name": "Chapel Hill",
    "state": "NC",
    "pop": 59635,
    "lat": 35.913199600000006,
    "lon": -79.05584449999999,
    "capital": false
  },
  {
    "name": "Casper",
    "state": "WY",
    "pop": 59628,
    "lat": 42.866632,
    "lon": -106.31308100000001,
    "capital": false
  },
  {
    "name": "Broomfield",
    "state": "CO",
    "pop": 59471,
    "lat": 39.9205411,
    "lon": -105.0866504,
    "capital": false
  },
  {
    "name": "Petaluma",
    "state": "CA",
    "pop": 59440,
    "lat": 38.232417,
    "lon": -122.6366524,
    "capital": false
  },
  {
    "name": "South Jordan",
    "state": "UT",
    "pop": 59366,
    "lat": 40.5621704,
    "lon": -111.929658,
    "capital": false
  },
  {
    "name": "Springfield",
    "state": "OH",
    "pop": 59357,
    "lat": 39.9242266,
    "lon": -83.8088171,
    "capital": false
  },
  {
    "name": "Great Falls",
    "state": "MT",
    "pop": 59351,
    "lat": 47.4941836,
    "lon": -111.2833449,
    "capital": false
  },
  {
    "name": "Lancaster",
    "state": "PA",
    "pop": 59325,
    "lat": 40.0378755,
    "lon": -76.3055144,
    "capital": false
  },
  {
    "name": "North Port",
    "state": "FL",
    "pop": 59212,
    "lat": 27.044224,
    "lon": -82.23592540000001,
    "capital": false
  },
  {
    "name": "Lakewood",
    "state": "WA",
    "pop": 59097,
    "lat": 47.1717649,
    "lon": -122.51845800000001,
    "capital": false
  },
  {
    "name": "Marietta",
    "state": "GA",
    "pop": 59089,
    "lat": 33.952602,
    "lon": -84.5499327,
    "capital": false
  },
  {
    "name": "San Rafael",
    "state": "CA",
    "pop": 58994,
    "lat": 37.9735346,
    "lon": -122.5310874,
    "capital": false
  },
  {
    "name": "Royal Oak",
    "state": "MI",
    "pop": 58946,
    "lat": 42.4894801,
    "lon": -83.1446485,
    "capital": false
  },
  {
    "name": "Des Plaines",
    "state": "IL",
    "pop": 58918,
    "lat": 42.03336229999999,
    "lon": -87.88339909999999,
    "capital": false
  },
  {
    "name": "Huntington Park",
    "state": "CA",
    "pop": 58879,
    "lat": 33.981681200000004,
    "lon": -118.22507250000001,
    "capital": false
  },
  {
    "name": "La Mesa",
    "state": "CA",
    "pop": 58642,
    "lat": 32.7678287,
    "lon": -117.02308390000002,
    "capital": false
  },
  {
    "name": "Orland Park",
    "state": "IL",
    "pop": 58590,
    "lat": 41.6303103,
    "lon": -87.8539425,
    "capital": false
  },
  {
    "name": "Auburn",
    "state": "AL",
    "pop": 58582,
    "lat": 32.6098566,
    "lon": -85.48078249999999,
    "capital": false
  },
  {
    "name": "Lakeville",
    "state": "MN",
    "pop": 58562,
    "lat": 44.6496868,
    "lon": -93.24271999999999,
    "capital": false
  },
  {
    "name": "Owensboro",
    "state": "KY",
    "pop": 58416,
    "lat": 37.771907399999996,
    "lon": -87.1111676,
    "capital": false
  },
  {
    "name": "Moore",
    "state": "OK",
    "pop": 58414,
    "lat": 35.339507899999994,
    "lon": -97.48670279999999,
    "capital": false
  },
  {
    "name": "Jupiter",
    "state": "FL",
    "pop": 58298,
    "lat": 26.934224600000004,
    "lon": -80.09420870000001,
    "capital": false
  },
  {
    "name": "Idaho Falls",
    "state": "ID",
    "pop": 58292,
    "lat": 43.491651399999995,
    "lon": -112.0339645,
    "capital": false
  },
  {
    "name": "Dubuque",
    "state": "IA",
    "pop": 58253,
    "lat": 42.5005583,
    "lon": -90.6645718,
    "capital": false
  },
  {
    "name": "Bartlett",
    "state": "TN",
    "pop": 58226,
    "lat": 35.204532799999996,
    "lon": -89.8739753,
    "capital": false
  },
  {
    "name": "Rowlett",
    "state": "TX",
    "pop": 58043,
    "lat": 32.9029017,
    "lon": -96.56388000000001,
    "capital": false
  },
  {
    "name": "Novi",
    "state": "MI",
    "pop": 57960,
    "lat": 42.48059,
    "lon": -83.47549129999999,
    "capital": false
  },
  {
    "name": "White Plains",
    "state": "NY",
    "pop": 57866,
    "lat": 41.0339862,
    "lon": -73.76290970000001,
    "capital": false
  },
  {
    "name": "Arcadia",
    "state": "CA",
    "pop": 57639,
    "lat": 34.139729200000005,
    "lon": -118.0353449,
    "capital": false
  },
  {
    "name": "Redmond",
    "state": "WA",
    "pop": 57530,
    "lat": 47.6739881,
    "lon": -122.12151200000001,
    "capital": false
  },
  {
    "name": "Lake Elsinore",
    "state": "CA",
    "pop": 57525,
    "lat": 33.668077200000006,
    "lon": -117.3272615,
    "capital": false
  },
  {
    "name": "Ocala",
    "state": "FL",
    "pop": 57468,
    "lat": 29.187198600000002,
    "lon": -82.14009229999999,
    "capital": false
  },
  {
    "name": "Tinley Park",
    "state": "IL",
    "pop": 57282,
    "lat": 41.5731442,
    "lon": -87.7932939,
    "capital": false
  },
  {
    "name": "Port Orange",
    "state": "FL",
    "pop": 57203,
    "lat": 29.1383165,
    "lon": -80.9956105,
    "capital": false
  },
  {
    "name": "Medford",
    "state": "MA",
    "pop": 57170,
    "lat": 42.4184296,
    "lon": -71.10616390000001,
    "capital": false
  },
  {
    "name": "Oak Lawn",
    "state": "IL",
    "pop": 57073,
    "lat": 41.719978000000005,
    "lon": -87.7479528,
    "capital": false
  },
  {
    "name": "Rocky Mount",
    "state": "NC",
    "pop": 56954,
    "lat": 35.938210299999994,
    "lon": -77.7905339,
    "capital": false
  },
  {
    "name": "Kokomo",
    "state": "IN",
    "pop": 56895,
    "lat": 40.486427,
    "lon": -86.13360329999999,
    "capital": false
  },
  {
    "name": "Coconut Creek",
    "state": "FL",
    "pop": 56792,
    "lat": 26.2517482,
    "lon": -80.17893509999999,
    "capital": false
  },
  {
    "name": "Bowie",
    "state": "MD",
    "pop": 56759,
    "lat": 39.0067768,
    "lon": -76.77913649999999,
    "capital": false
  },
  {
    "name": "Berwyn",
    "state": "IL",
    "pop": 56758,
    "lat": 41.8505874,
    "lon": -87.79366850000001,
    "capital": false
  },
  {
    "name": "Midwest City",
    "state": "OK",
    "pop": 56756,
    "lat": 35.4495065,
    "lon": -97.39670190000001,
    "capital": false
  },
  {
    "name": "Fountain Valley",
    "state": "CA",
    "pop": 56707,
    "lat": 33.7091847,
    "lon": -117.95366969999999,
    "capital": false
  },
  {
    "name": "Buckeye",
    "state": "AZ",
    "pop": 56683,
    "lat": 33.370319699999996,
    "lon": -112.58377659999998,
    "capital": false
  },
  {
    "name": "Dearborn Heights",
    "state": "MI",
    "pop": 56620,
    "lat": 42.3369816,
    "lon": -83.2732627,
    "capital": false
  },
  {
    "name": "Woodland",
    "state": "CA",
    "pop": 56590,
    "lat": 38.6785157,
    "lon": -121.7732971,
    "capital": false
  },
  {
    "name": "Noblesville",
    "state": "IN",
    "pop": 56540,
    "lat": 40.0455917,
    "lon": -86.0085955,
    "capital": false
  },
  {
    "name": "Valdosta",
    "state": "GA",
    "pop": 56481,
    "lat": 30.8327022,
    "lon": -83.2784851,
    "capital": false
  },
  {
    "name": "Diamond Bar",
    "state": "CA",
    "pop": 56449,
    "lat": 34.028622600000006,
    "lon": -117.81033670000001,
    "capital": false
  },
  {
    "name": "Manhattan",
    "state": "KS",
    "pop": 56143,
    "lat": 39.1836082,
    "lon": -96.5716694,
    "capital": false
  },
  {
    "name": "Santee",
    "state": "CA",
    "pop": 56105,
    "lat": 32.8383828,
    "lon": -116.97391670000002,
    "capital": false
  },
  {
    "name": "Taunton",
    "state": "MA",
    "pop": 56069,
    "lat": 41.900101,
    "lon": -71.08976740000001,
    "capital": false
  },
  {
    "name": "Sanford",
    "state": "FL",
    "pop": 56002,
    "lat": 28.802861199999995,
    "lon": -81.269453,
    "capital": false
  },
  {
    "name": "Kettering",
    "state": "OH",
    "pop": 55870,
    "lat": 39.6895036,
    "lon": -84.16882740000001,
    "capital": false
  },
  {
    "name": "New Brunswick",
    "state": "NJ",
    "pop": 55831,
    "lat": 40.4862157,
    "lon": -74.4518188,
    "capital": false
  },
  {
    "name": "Decatur",
    "state": "AL",
    "pop": 55816,
    "lat": 34.605925299999996,
    "lon": -86.9833417,
    "capital": false
  },
  {
    "name": "Chicopee",
    "state": "MA",
    "pop": 55717,
    "lat": 42.14870429999999,
    "lon": -72.6078672,
    "capital": false
  },
  {
    "name": "Anderson",
    "state": "IN",
    "pop": 55670,
    "lat": 40.1053196,
    "lon": -85.6802541,
    "capital": false
  },
  {
    "name": "Margate",
    "state": "FL",
    "pop": 55456,
    "lat": 26.244526300000004,
    "lon": -80.206436,
    "capital": false
  },
  {
    "name": "Weymouth Town",
    "state": "MA",
    "pop": 55419,
    "lat": 42.2180724,
    "lon": -70.94103559999999,
    "capital": false
  },
  {
    "name": "Hempstead",
    "state": "NY",
    "pop": 55361,
    "lat": 40.706212799999996,
    "lon": -73.6187397,
    "capital": false
  },
  {
    "name": "Corvallis",
    "state": "OR",
    "pop": 55298,
    "lat": 44.5645659,
    "lon": -123.2620435,
    "capital": false
  },
  {
    "name": "Eastvale",
    "state": "CA",
    "pop": 55191,
    "lat": 33.952463,
    "lon": -117.5848025,
    "capital": false
  },
  {
    "name": "Porterville",
    "state": "CA",
    "pop": 55174,
    "lat": 36.06523,
    "lon": -119.0167679,
    "capital": false
  },
  {
    "name": "West Haven",
    "state": "CT",
    "pop": 55046,
    "lat": 41.2705484,
    "lon": -72.94697109999998,
    "capital": false
  },
  {
    "name": "Brentwood",
    "state": "CA",
    "pop": 55000,
    "lat": 37.931868,
    "lon": -121.6957863,
    "capital": false
  },
  {
    "name": "Paramount",
    "state": "CA",
    "pop": 54980,
    "lat": 33.8894598,
    "lon": -118.15979109999998,
    "capital": false
  },
  {
    "name": "Grand Forks",
    "state": "ND",
    "pop": 54932,
    "lat": 47.9252568,
    "lon": -97.0328547,
    "capital": false
  },
  {
    "name": "Georgetown",
    "state": "TX",
    "pop": 54898,
    "lat": 30.633261800000003,
    "lon": -97.67798420000001,
    "capital": false
  },
  {
    "name": "St. Peters",
    "state": "MO",
    "pop": 54842,
    "lat": 38.7874699,
    "lon": -90.6298922,
    "capital": false
  },
  {
    "name": "Shoreline",
    "state": "WA",
    "pop": 54790,
    "lat": 47.7556531,
    "lon": -122.3415178,
    "capital": false
  },
  {
    "name": "Mount Prospect",
    "state": "IL",
    "pop": 54771,
    "lat": 42.066416700000005,
    "lon": -87.9372908,
    "capital": false
  },
  {
    "name": "Hanford",
    "state": "CA",
    "pop": 54686,
    "lat": 36.3274502,
    "lon": -119.64568440000001,
    "capital": false
  },
  {
    "name": "Normal",
    "state": "IL",
    "pop": 54664,
    "lat": 40.514202600000004,
    "lon": -88.99063120000001,
    "capital": false
  },
  {
    "name": "Rosemead",
    "state": "CA",
    "pop": 54561,
    "lat": 34.0805651,
    "lon": -118.072846,
    "capital": false
  },
  {
    "name": "Lehi",
    "state": "UT",
    "pop": 54382,
    "lat": 40.3916172,
    "lon": -111.8507662,
    "capital": false
  },
  {
    "name": "Pocatello",
    "state": "ID",
    "pop": 54350,
    "lat": 42.8713032,
    "lon": -112.4455344,
    "capital": false
  },
  {
    "name": "Highland",
    "state": "CA",
    "pop": 54291,
    "lat": 34.1283442,
    "lon": -117.2086513,
    "capital": false
  },
  {
    "name": "Novato",
    "state": "CA",
    "pop": 54194,
    "lat": 38.107419799999995,
    "lon": -122.5697032,
    "capital": false
  },
  {
    "name": "Port Arthur",
    "state": "TX",
    "pop": 54135,
    "lat": 29.884950399999997,
    "lon": -93.939947,
    "capital": false
  },
  {
    "name": "Carson City",
    "state": "NV",
    "pop": 54080,
    "lat": 39.1637984,
    "lon": -119.76740339999999,
    "capital": true
  },
  {
    "name": "San Marcos",
    "state": "TX",
    "pop": 54076,
    "lat": 29.8832749,
    "lon": -97.9413941,
    "capital": false
  },
  {
    "name": "Hendersonville",
    "state": "TN",
    "pop": 54068,
    "lat": 36.304773499999996,
    "lon": -86.6199957,
    "capital": false
  },
  {
    "name": "Elyria",
    "state": "OH",
    "pop": 53956,
    "lat": 41.36837979999999,
    "lon": -82.10764859999999,
    "capital": false
  },
  {
    "name": "Revere",
    "state": "MA",
    "pop": 53756,
    "lat": 42.408430200000005,
    "lon": -71.0119948,
    "capital": false
  },
  {
    "name": "Pflugerville",
    "state": "TX",
    "pop": 53752,
    "lat": 30.4393696,
    "lon": -97.62000429999999,
    "capital": false
  },
  {
    "name": "Greenwood",
    "state": "IN",
    "pop": 53665,
    "lat": 39.6136578,
    "lon": -86.10665259999999,
    "capital": false
  },
  {
    "name": "Bellevue",
    "state": "NE",
    "pop": 53663,
    "lat": 41.154362299999995,
    "lon": -95.9145568,
    "capital": false
  },
  {
    "name": "Wheaton",
    "state": "IL",
    "pop": 53648,
    "lat": 41.8661403,
    "lon": -88.1070127,
    "capital": false
  },
  {
    "name": "Smyrna",
    "state": "GA",
    "pop": 53438,
    "lat": 33.883992600000006,
    "lon": -84.51437609999999,
    "capital": false
  },
  {
    "name": "Sarasota",
    "state": "FL",
    "pop": 53326,
    "lat": 27.3364347,
    "lon": -82.5306527,
    "capital": false
  },
  {
    "name": "Blue Springs",
    "state": "MO",
    "pop": 53294,
    "lat": 39.0169509,
    "lon": -94.2816148,
    "capital": false
  },
  {
    "name": "Colton",
    "state": "CA",
    "pop": 53243,
    "lat": 34.0739016,
    "lon": -117.3136547,
    "capital": false
  },
  {
    "name": "Euless",
    "state": "TX",
    "pop": 53224,
    "lat": 32.8370727,
    "lon": -97.08195409999999,
    "capital": false
  },
  {
    "name": "Castle Rock",
    "state": "CO",
    "pop": 53063,
    "lat": 39.372212100000006,
    "lon": -104.8560902,
    "capital": false
  },
  {
    "name": "Cathedral City",
    "state": "CA",
    "pop": 52977,
    "lat": 33.780538799999995,
    "lon": -116.46680359999999,
    "capital": false
  },